{
  "1": {
    "route_id": "1",
    "stops": [
      {
        "seq": 1,
        "name": "THIRUVOTRIYUR",
        "lat": 13.17224,
        "lng": 80.30546,
        "has_gps": true
      },
      {
        "seq": 2,
        "name": "THIRUVOTRIYUR TEMPLE",
        "lat": null,
        "lng": null,
        "has_gps": false
      },
      {
        "seq": 3,
        "name": "THANGAL",
        "lat": 13.14788,
        "lng": 80.2972,
        "has_gps": true
      },
      {
        "seq": 4,
        "name": "ANNA NAGAR",
        "lat": 12.931302,
        "lng": 80.238473,
        "has_gps": true
      },
      {
        "seq": 5,
        "name": "ROYAPURAM P.S",
        "lat": 13.10893,
        "lng": 80.29177,
        "has_gps": true
      },
      {
        "seq": 6,
        "name": "CLIVE BATTERY",
        "lat": 13.10159,
        "lng": 80.29435,
        "has_gps": true
      },
      {
        "seq": 7,
        "name": "PARRYS",
        "lat": 13.08523,
        "lng": 80.0,
        "has_gps": true
      },
      {
        "seq": 8,
        "name": "M.G.R.CENTRAL",
        "lat": null,
        "lng": null,
        "has_gps": false
      },
      {
        "seq": 9,
        "name": "P.OR & SONS",
        "lat": 13.07512,
        "lng": 80.0,
        "has_gps": true
      },
      {
        "seq": 10,
        "name": "WESLEY H.S",
        "lat": 13.05923,
        "lng": 80.26554,
        "has_gps": true
      },
      {
        "seq": 11,
        "name": "Y.M.I.A",
        "lat": 13.04454,
        "lng": 80.26744,
        "has_gps": true
      },
      {
        "seq": 12,
        "name": "MANDAVELI",
        "lat": 13.02668,
        "lng": 80.26572,
        "has_gps": true
      },
      {
        "seq": 13,
        "name": "A.M.S.HOSPITAL",
        "lat": 13.01647,
        "lng": 80.25963,
        "has_gps": true
      },
      {
        "seq": 14,
        "name": "ADYAR O.T.",
        "lat": 13.00644,
        "lng": 80.25751,
        "has_gps": true
      },
      {
        "seq": 15,
        "name": "ADYAR DEPOT",
        "lat": 12.996827,
        "lng": 80.255645,
        "has_gps": true
      },
      {
        "seq": 16,
        "name": "THIRUVANMIYUR",
        "lat": 12.98688,
        "lng": 80.2589,
        "has_gps": true
      }
    ],
    "stop_count": 16,
    "gps_coverage_pct": 87.5
  },
  "101": {
    "route_id": "101",
    "stops": [
      {
        "seq": 1,
        "name": "THIRUVOTRIYUR",
        "lat": 13.17224,
        "lng": 80.30546,
        "has_gps": true
      },
      {
        "seq": 2,
        "name": "THRUVOTRIYUR TEMPLE",
        "lat": null,
        "lng": null,
        "has_gps": false
      },
      {
        "seq": 3,
        "name": "THANGAL",
        "lat": 13.14788,
        "lng": 80.2972,
        "has_gps": true
      },
      {
        "seq": 4,
        "name": "ANNA NAGAR",
        "lat": 12.931302,
        "lng": 80.238473,
        "has_gps": true
      },
      {
        "seq": 5,
        "name": "ROYAPURAM P.S",
        "lat": 13.10893,
        "lng": 80.29177,
        "has_gps": true
      },
      {
        "seq": 6,
        "name": "CLIVE BATTERY",
        "lat": 13.10159,
        "lng": 80.29435,
        "has_gps": true
      },
      {
        "seq": 7,
        "name": "PARRYS",
        "lat": 13.08523,
        "lng": 80.0,
        "has_gps": true
      },
      {
        "seq": 8,
        "name": "M.G.R.CENTRAL",
        "lat": null,
        "lng": null,
        "has_gps": false
      },
      {
        "seq": 9,
        "name": "DASAPRAKASH",
        "lat": 13.079687,
        "lng": 80.254505,
        "has_gps": true
      },
      {
        "seq": 10,
        "name": "TAYLORS ROAD",
        "lat": 13.076744,
        "lng": 80.238836,
        "has_gps": true
      },
      {
        "seq": 11,
        "name": "AMINJIKARAI",
        "lat": 13.07398,
        "lng": 80.22472,
        "has_gps": true
      },
      {
        "seq": 12,
        "name": "NADUVANKARAI",
        "lat": 13.07705,
        "lng": 80.21067,
        "has_gps": true
      },
      {
        "seq": 13,
        "name": "ARUMBAKKAM",
        "lat": 13.07638,
        "lng": 80.20273,
        "has_gps": true
      },
      {
        "seq": 14,
        "name": "NERKUNDRAM",
        "lat": 13.07162,
        "lng": 80.18569,
        "has_gps": true
      },
      {
        "seq": 15,
        "name": "MADURAVOYAL",
        "lat": 13.0615,
        "lng": 80.1644,
        "has_gps": true
      },
      {
        "seq": 16,
        "name": "VAANAGARAM",
        "lat": 13.06134,
        "lng": 80.15153,
        "has_gps": true
      },
      {
        "seq": 17,
        "name": "VELAPPANCHAVADI",
        "lat": 13.0615,
        "lng": 80.13814,
        "has_gps": true
      },
      {
        "seq": 18,
        "name": "KUMUNANCHAVADI",
        "lat": 13.045089,
        "lng": 80.115921,
        "has_gps": true
      },
      {
        "seq": 19,
        "name": "POONAMALLEE",
        "lat": 13.04931,
        "lng": 80.10443,
        "has_gps": true
      }
    ],
    "stop_count": 19,
    "gps_coverage_pct": 89.5
  },
  "102": {
    "route_id": "102",
    "stops": [
      {
        "seq": 1,
        "name": "BROADWAY",
        "lat": 13.087596,
        "lng": 80.283738,
        "has_gps": true
      },
      {
        "seq": 2,
        "name": "SECRETARIAT",
        "lat": 13.080559,
        "lng": 80.288201,
        "has_gps": true
      },
      {
        "seq": 3,
        "name": "CHEPAUK",
        "lat": 13.05757,
        "lng": 80.28191,
        "has_gps": true
      },
      {
        "seq": 4,
        "name": "Q.M.C",
        "lat": null,
        "lng": null,
        "has_gps": false
      },
      {
        "seq": 5,
        "name": "FORESHORE ESTATE",
        "lat": 13.02421,
        "lng": 80.27384,
        "has_gps": true
      },
      {
        "seq": 6,
        "name": "A.M.S.HOSPITAL",
        "lat": 13.01647,
        "lng": 80.25963,
        "has_gps": true
      },
      {
        "seq": 7,
        "name": "ADYAR O.T.",
        "lat": 13.00644,
        "lng": 80.25751,
        "has_gps": true
      },
      {
        "seq": 8,
        "name": "INDIRA NAGAR WATER TANK",
        "lat": 12.994577,
        "lng": 80.252523,
        "has_gps": true
      },
      {
        "seq": 9,
        "name": "SRP TOOLS",
        "lat": 12.97873,
        "lng": 80.252629,
        "has_gps": true
      },
      {
        "seq": 10,
        "name": "KANDANCHAVADI",
        "lat": 12.966938,
        "lng": 80.247971,
        "has_gps": true
      },
      {
        "seq": 11,
        "name": "THORAPPAKKAM TEA SHOP",
        "lat": 12.952012,
        "lng": 80.242241,
        "has_gps": true
      },
      {
        "seq": 12,
        "name": "MOOTAKARAN CHAVADI",
        "lat": 12.929949,
        "lng": 80.231094,
        "has_gps": true
      },
      {
        "seq": 13,
        "name": "KARAPAKKAM",
        "lat": 12.913535,
        "lng": 80.229182,
        "has_gps": true
      },
      {
        "seq": 14,
        "name": "SHOZHANGANALLUR P.U.OFFICE",
        "lat": 12.90117,
        "lng": 80.22569,
        "has_gps": true
      },
      {
        "seq": 15,
        "name": "KUMARAN NAGAR",
        "lat": 13.029201,
        "lng": 80.224215,
        "has_gps": true
      },
      {
        "seq": 16,
        "name": "SEMMANCHERI",
        "lat": 12.85971,
        "lng": 80.226528,
        "has_gps": true
      },
      {
        "seq": 17,
        "name": "NAVALUR",
        "lat": 12.84493,
        "lng": 80.226769,
        "has_gps": true
      },
      {
        "seq": 18,
        "name": "CHURCH",
        "lat": null,
        "lng": null,
        "has_gps": false
      },
      {
        "seq": 19,
        "name": "PALAVASTHIC CHEMICALS",
        "lat": 12.816585,
        "lng": 80.229683,
        "has_gps": true
      },
      {
        "seq": 20,
        "name": "HINDUSTAN ENG. COLLEGE",
        "lat": 12.801308,
        "lng": 80.223732,
        "has_gps": true
      },
      {
        "seq": 21,
        "name": "KELAMBAKKAM",
        "lat": 12.786357,
        "lng": 80.221931,
        "has_gps": true
      }
    ],
    "stop_count": 21,
    "gps_coverage_pct": 90.5
  },
  "102A": {
    "route_id": "102A",
    "stops": [
      {
        "seq": 1,
        "name": "THIRUVANMIYUR",
        "lat": 12.98688,
        "lng": 80.2589,
        "has_gps": true
      },
      {
        "seq": 2,
        "name": "SRP TOOLS",
        "lat": 12.97873,
        "lng": 80.252629,
        "has_gps": true
      },
      {
        "seq": 3,
        "name": "KANDANCHAVADI",
        "lat": 12.966938,
        "lng": 80.247971,
        "has_gps": true
      },
      {
        "seq": 4,
        "name": "THORAPPAKKAM TEA SHOP",
        "lat": 12.952012,
        "lng": 80.242241,
        "has_gps": true
      },
      {
        "seq": 5,
        "name": "MOOTAKARAN CHAVADI",
        "lat": 12.929949,
        "lng": 80.231094,
        "has_gps": true
      },
      {
        "seq": 6,
        "name": "KARAPAKKAM",
        "lat": 12.913535,
        "lng": 80.229182,
        "has_gps": true
      },
      {
        "seq": 7,
        "name": "SHOZHANGANALLUR P.U.OFFICE",
        "lat": 12.90117,
        "lng": 80.22569,
        "has_gps": true
      },
      {
        "seq": 8,
        "name": "KUMARAN NAGAR",
        "lat": 13.029201,
        "lng": 80.224215,
        "has_gps": true
      },
      {
        "seq": 9,
        "name": "SEMMANCHERI",
        "lat": 12.85971,
        "lng": 80.226528,
        "has_gps": true
      },
      {
        "seq": 10,
        "name": "NAVALUR",
        "lat": 12.84493,
        "lng": 80.226769,
        "has_gps": true
      },
      {
        "seq": 11,
        "name": "SIPCOT",
        "lat": 12.830953,
        "lng": 80.229335,
        "has_gps": true
      },
      {
        "seq": 12,
        "name": "SIRUSERI I.T.PARK",
        "lat": null,
        "lng": null,
        "has_gps": false
      },
      {
        "seq": 13,
        "name": "PUDUPAKKAM P.U.O.",
        "lat": null,
        "lng": null,
        "has_gps": false
      },
      {
        "seq": 14,
        "name": "PUDUPAKKAM/VANDALOOR RD.J",
        "lat": null,
        "lng": null,
        "has_gps": false
      }
    ],
    "stop_count": 14,
    "gps_coverage_pct": 78.6
  },
  "102C": {
    "route_id": "102C",
    "stops": [
      {
        "seq": 1,
        "name": "BROADWAY",
        "lat": 13.087596,
        "lng": 80.283738,
        "has_gps": true
      },
      {
        "seq": 2,
        "name": "SECRETARIAT",
        "lat": 13.080559,
        "lng": 80.288201,
        "has_gps": true
      },
      {
        "seq": 3,
        "name": "CHEPAUK",
        "lat": 13.05757,
        "lng": 80.28191,
        "has_gps": true
      },
      {
        "seq": 4,
        "name": "Q.M.C",
        "lat": null,
        "lng": null,
        "has_gps": false
      },
      {
        "seq": 5,
        "name": "FORESHORE ESTATE",
        "lat": 13.02421,
        "lng": 80.27384,
        "has_gps": true
      },
      {
        "seq": 6,
        "name": "A.M.S.HOSPITAL",
        "lat": 13.01647,
        "lng": 80.25963,
        "has_gps": true
      },
      {
        "seq": 7,
        "name": "ADYAR O.T.",
        "lat": 13.00644,
        "lng": 80.25751,
        "has_gps": true
      },
      {
        "seq": 8,
        "name": "ADYAR DEPOT",
        "lat": 12.996827,
        "lng": 80.255645,
        "has_gps": true
      },
      {
        "seq": 9,
        "name": "SRP TOOLS",
        "lat": 12.97873,
        "lng": 80.252629,
        "has_gps": true
      },
      {
        "seq": 10,
        "name": "KANDANCHAVADI",
        "lat": 12.966938,
        "lng": 80.247971,
        "has_gps": true
      },
      {
        "seq": 11,
        "name": "THORAPPAKKAM TEA SHOP",
        "lat": 12.952012,
        "lng": 80.242241,
        "has_gps": true
      },
      {
        "seq": 12,
        "name": "MOOTAKARAN CHAVADI",
        "lat": 12.929949,
        "lng": 80.231094,
        "has_gps": true
      },
      {
        "seq": 13,
        "name": "KARAPAKKAM",
        "lat": 12.913535,
        "lng": 80.229182,
        "has_gps": true
      },
      {
        "seq": 14,
        "name": "SHOZHANGANALLUR P.U.OFFICE",
        "lat": 12.90117,
        "lng": 80.22569,
        "has_gps": true
      },
      {
        "seq": 15,
        "name": "KUMARAN NAGAR",
        "lat": 13.029201,
        "lng": 80.224215,
        "has_gps": true
      },
      {
        "seq": 16,
        "name": "NUCLEUS COMPANY",
        "lat": null,
        "lng": null,
        "has_gps": false
      },
      {
        "seq": 17,
        "name": "SEMMANCHERI S.C.B.",
        "lat": 12.874689,
        "lng": 80.209732,
        "has_gps": true
      }
    ],
    "stop_count": 17,
    "gps_coverage_pct": 88.2
  },
  "102CT": {
    "route_id": "102CT",
    "stops": [
      {
        "seq": 1,
        "name": "THIRUVANMIYUR",
        "lat": 12.98688,
        "lng": 80.2589,
        "has_gps": true
      },
      {
        "seq": 2,
        "name": "SRP TOOLS",
        "lat": 12.97873,
        "lng": 80.252629,
        "has_gps": true
      },
      {
        "seq": 3,
        "name": "KANDANCHAVADI",
        "lat": 12.966938,
        "lng": 80.247971,
        "has_gps": true
      },
      {
        "seq": 4,
        "name": "THORAPPAKKAM TEA SHOP",
        "lat": 12.952012,
        "lng": 80.242241,
        "has_gps": true
      },
      {
        "seq": 5,
        "name": "MOOTAKARAN CHAVADI",
        "lat": 12.929949,
        "lng": 80.231094,
        "has_gps": true
      },
      {
        "seq": 6,
        "name": "KARAPAKKAM",
        "lat": 12.913535,
        "lng": 80.229182,
        "has_gps": true
      },
      {
        "seq": 7,
        "name": "SHOZHANGANALLUR P.U.OFFICE",
        "lat": 12.90117,
        "lng": 80.22569,
        "has_gps": true
      },
      {
        "seq": 8,
        "name": "KUMARAN NAGAR",
        "lat": 13.029201,
        "lng": 80.224215,
        "has_gps": true
      },
      {
        "seq": 9,
        "name": "SEMMANCHERI",
        "lat": 12.85971,
        "lng": 80.226528,
        "has_gps": true
      },
      {
        "seq": 10,
        "name": "NAVALUR",
        "lat": 12.84493,
        "lng": 80.226769,
        "has_gps": true
      },
      {
        "seq": 11,
        "name": "SIPCOT",
        "lat": 12.830953,
        "lng": 80.229335,
        "has_gps": true
      },
      {
        "seq": 12,
        "name": "SIRUSERI I.T.PARK",
        "lat": null,
        "lng": null,
        "has_gps": false
      }
    ],
    "stop_count": 12,
    "gps_coverage_pct": 91.7
  },
  "102K": {
    "route_id": "102K",
    "stops": [
      {
        "seq": 1,
        "name": "BROADWAY",
        "lat": 13.087596,
        "lng": 80.283738,
        "has_gps": true
      },
      {
        "seq": 2,
        "name": "SECRETARIAT",
        "lat": 13.080559,
        "lng": 80.288201,
        "has_gps": true
      },
      {
        "seq": 3,
        "name": "CHEPAUK",
        "lat": 13.05757,
        "lng": 80.28191,
        "has_gps": true
      },
      {
        "seq": 4,
        "name": "Q.M.C",
        "lat": null,
        "lng": null,
        "has_gps": false
      },
      {
        "seq": 5,
        "name": "FORESHORE ESTATE",
        "lat": 13.02421,
        "lng": 80.27384,
        "has_gps": true
      },
      {
        "seq": 6,
        "name": "A.M.S.HOSPITAL",
        "lat": 13.01647,
        "lng": 80.25963,
        "has_gps": true
      },
      {
        "seq": 7,
        "name": "ADYAR O.T.",
        "lat": 13.00644,
        "lng": 80.25751,
        "has_gps": true
      },
      {
        "seq": 8,
        "name": "INDIRA NAGAR",
        "lat": 12.99235,
        "lng": 80.25607,
        "has_gps": true
      },
      {
        "seq": 9,
        "name": "SRP TOOLS",
        "lat": 12.97873,
        "lng": 80.252629,
        "has_gps": true
      },
      {
        "seq": 10,
        "name": "KANDANCHAVADI",
        "lat": 12.966938,
        "lng": 80.247971,
        "has_gps": true
      },
      {
        "seq": 11,
        "name": "THORAPPAKKAM TEA SHOP",
        "lat": 12.952012,
        "lng": 80.242241,
        "has_gps": true
      },
      {
        "seq": 12,
        "name": "THORAPPAKKAM P.T.C COLONY",
        "lat": null,
        "lng": null,
        "has_gps": false
      },
      {
        "seq": 13,
        "name": "KANNAGI NAGAR S.C.B.",
        "lat": 12.931302,
        "lng": 80.238473,
        "has_gps": true
      }
    ],
    "stop_count": 13,
    "gps_coverage_pct": 84.6
  },
  "102K#": {
    "route_id": "102K#",
    "stops": [
      {
        "seq": 1,
        "name": "BROADWAY",
        "lat": 13.087596,
        "lng": 80.283738,
        "has_gps": true
      },
      {
        "seq": 2,
        "name": "SECRETARIAT",
        "lat": 13.080559,
        "lng": 80.288201,
        "has_gps": true
      },
      {
        "seq": 3,
        "name": "CHEPAUK",
        "lat": 13.05757,
        "lng": 80.28191,
        "has_gps": true
      },
      {
        "seq": 4,
        "name": "Q.M.C",
        "lat": null,
        "lng": null,
        "has_gps": false
      },
      {
        "seq": 5,
        "name": "FORESHORE ESTATE",
        "lat": 13.02421,
        "lng": 80.27384,
        "has_gps": true
      },
      {
        "seq": 6,
        "name": "A.M.S.HOSPITAL",
        "lat": 13.01647,
        "lng": 80.25963,
        "has_gps": true
      },
      {
        "seq": 7,
        "name": "ADYAR O.T.",
        "lat": 13.00644,
        "lng": 80.25751,
        "has_gps": true
      },
      {
        "seq": 8,
        "name": "INDIRA NAGAR",
        "lat": 12.99235,
        "lng": 80.25607,
        "has_gps": true
      },
      {
        "seq": 9,
        "name": "SRP TOOLS",
        "lat": 12.97873,
        "lng": 80.252629,
        "has_gps": true
      },
      {
        "seq": 10,
        "name": "KANDANCHAVADI",
        "lat": 12.966938,
        "lng": 80.247971,
        "has_gps": true
      },
      {
        "seq": 11,
        "name": "THORAPPAKKAM TEA SHOP",
        "lat": 12.952012,
        "lng": 80.242241,
        "has_gps": true
      },
      {
        "seq": 12,
        "name": "THORAPPAKKAM P.T.C COLONY",
        "lat": null,
        "lng": null,
        "has_gps": false
      },
      {
        "seq": 13,
        "name": "KANNAGI NAGAR S.C.B.",
        "lat": 12.931302,
        "lng": 80.238473,
        "has_gps": true
      }
    ],
    "stop_count": 13,
    "gps_coverage_pct": 84.6
  },
  "102M": {
    "route_id": "102M",
    "stops": [
      {
        "seq": 1,
        "name": "ADYAR B.S.",
        "lat": null,
        "lng": null,
        "has_gps": false
      },
      {
        "seq": 2,
        "name": "ADYAR DEPOT",
        "lat": 12.996827,
        "lng": 80.255645,
        "has_gps": true
      },
      {
        "seq": 3,
        "name": "SRP TOOLS",
        "lat": 12.97873,
        "lng": 80.252629,
        "has_gps": true
      },
      {
        "seq": 4,
        "name": "KANDANCHAVADI",
        "lat": 12.966938,
        "lng": 80.247971,
        "has_gps": true
      },
      {
        "seq": 5,
        "name": "THORAPPAKKAM TEA SHOP",
        "lat": 12.952012,
        "lng": 80.242241,
        "has_gps": true
      },
      {
        "seq": 6,
        "name": "MOOTAKARAN CHAVADI",
        "lat": 12.929949,
        "lng": 80.231094,
        "has_gps": true
      },
      {
        "seq": 7,
        "name": "KARAPAKKAM",
        "lat": 12.913535,
        "lng": 80.229182,
        "has_gps": true
      },
      {
        "seq": 8,
        "name": "SHOZHANGANALLUR P.U.OFFICE",
        "lat": 12.90117,
        "lng": 80.22569,
        "has_gps": true
      },
      {
        "seq": 9,
        "name": "KUMARAN NAGAR",
        "lat": 13.029201,
        "lng": 80.224215,
        "has_gps": true
      },
      {
        "seq": 10,
        "name": "SEMMANCHERI",
        "lat": 12.85971,
        "lng": 80.226528,
        "has_gps": true
      },
      {
        "seq": 11,
        "name": "NAVALUR",
        "lat": 12.84493,
        "lng": 80.226769,
        "has_gps": true
      },
      {
        "seq": 12,
        "name": "CHURCH",
        "lat": null,
        "lng": null,
        "has_gps": false
      },
      {
        "seq": 13,
        "name": "PALAVASTHIC CHEMICALS",
        "lat": 12.816585,
        "lng": 80.229683,
        "has_gps": true
      },
      {
        "seq": 14,
        "name": "HINDUSTAN ENG. COLLEGE",
        "lat": 12.801308,
        "lng": 80.223732,
        "has_gps": true
      },
      {
        "seq": 15,
        "name": "KELAMBAKKAM",
        "lat": 12.786357,
        "lng": 80.221931,
        "has_gps": true
      },
      {
        "seq": 16,
        "name": "CHENGAMMAL RD. JN.",
        "lat": null,
        "lng": null,
        "has_gps": false
      },
      {
        "seq": 17,
        "name": "KOMAN NAGAR RD JN.",
        "lat": 12.744287,
        "lng": 80.200479,
        "has_gps": true
      },
      {
        "seq": 18,
        "name": "KALAVAKKAM TEA STALL",
        "lat": null,
        "lng": null,
        "has_gps": false
      },
      {
        "seq": 19,
        "name": "THIRUPORUR",
        "lat": null,
        "lng": null,
        "has_gps": false
      },
      {
        "seq": 20,
        "name": "MANAMATHI ROAD JN",
        "lat": null,
        "lng": null,
        "has_gps": false
      },
      {
        "seq": 21,
        "name": "CHIRUTHAVOOR JN.",
        "lat": null,
        "lng": null,
        "has_gps": false
      },
      {
        "seq": 22,
        "name": "AMMUR COLONY",
        "lat": null,
        "lng": null,
        "has_gps": false
      },
      {
        "seq": 23,
        "name": "KALAVAKKAM",
        "lat": 12.741619,
        "lng": 80.197187,
        "has_gps": true
      },
      {
        "seq": 24,
        "name": "MANAMATHI SCHOOL",
        "lat": null,
        "lng": null,
        "has_gps": false
      },
      {
        "seq": 25,
        "name": "MANAMATHI",
        "lat": null,
        "lng": null,
        "has_gps": false
      }
    ],
    "stop_count": 25,
    "gps_coverage_pct": 60.0
  },
  "102P": {
    "route_id": "102P",
    "stops": [
      {
        "seq": 1,
        "name": "BROADWAY",
        "lat": 13.087596,
        "lng": 80.283738,
        "has_gps": true
      },
      {
        "seq": 2,
        "name": "SECRETARIAT",
        "lat": 13.080559,
        "lng": 80.288201,
        "has_gps": true
      },
      {
        "seq": 3,
        "name": "CHEPAUK",
        "lat": 13.05757,
        "lng": 80.28191,
        "has_gps": true
      },
      {
        "seq": 4,
        "name": "Q.M.C",
        "lat": null,
        "lng": null,
        "has_gps": false
      },
      {
        "seq": 5,
        "name": "FORESHORE ESTATE",
        "lat": 13.02421,
        "lng": 80.27384,
        "has_gps": true
      },
      {
        "seq": 6,
        "name": "A.M.S.HOSPITAL",
        "lat": 13.01647,
        "lng": 80.25963,
        "has_gps": true
      },
      {
        "seq": 7,
        "name": "ADYAR O.T.",
        "lat": 13.00644,
        "lng": 80.25751,
        "has_gps": true
      },
      {
        "seq": 8,
        "name": "ADYAR DEPOT",
        "lat": 12.996827,
        "lng": 80.255645,
        "has_gps": true
      },
      {
        "seq": 9,
        "name": "SRP TOOLS",
        "lat": 12.97873,
        "lng": 80.252629,
        "has_gps": true
      },
      {
        "seq": 10,
        "name": "KANDANCHAVADI",
        "lat": 12.966938,
        "lng": 80.247971,
        "has_gps": true
      },
      {
        "seq": 11,
        "name": "THORAPPAKKAM TEA SHOP",
        "lat": 12.952012,
        "lng": 80.242241,
        "has_gps": true
      },
      {
        "seq": 12,
        "name": "MOOTAKARAN CHAVADI",
        "lat": 12.929949,
        "lng": 80.231094,
        "has_gps": true
      },
      {
        "seq": 13,
        "name": "KARAPAKKAM",
        "lat": 12.913535,
        "lng": 80.229182,
        "has_gps": true
      },
      {
        "seq": 14,
        "name": "SHOZHANGANALLUR P.U.OFFICE",
        "lat": 12.90117,
        "lng": 80.22569,
        "has_gps": true
      },
      {
        "seq": 15,
        "name": "KUMARAN NAGAR",
        "lat": 13.029201,
        "lng": 80.224215,
        "has_gps": true
      },
      {
        "seq": 16,
        "name": "NUCLEUS COMPANY",
        "lat": null,
        "lng": null,
        "has_gps": false
      },
      {
        "seq": 17,
        "name": "PERUMPAKKAM S.C.B.",
        "lat": null,
        "lng": null,
        "has_gps": false
      }
    ],
    "stop_count": 17,
    "gps_coverage_pct": 82.4
  },
  "102S": {
    "route_id": "102S",
    "stops": [
      {
        "seq": 1,
        "name": "BROADWAY",
        "lat": 13.087596,
        "lng": 80.283738,
        "has_gps": true
      },
      {
        "seq": 2,
        "name": "SECRETARIAT",
        "lat": 13.080559,
        "lng": 80.288201,
        "has_gps": true
      },
      {
        "seq": 3,
        "name": "CHEPAUK",
        "lat": 13.05757,
        "lng": 80.28191,
        "has_gps": true
      },
      {
        "seq": 4,
        "name": "Q.M.C",
        "lat": null,
        "lng": null,
        "has_gps": false
      },
      {
        "seq": 5,
        "name": "FORESHORE ESTATE",
        "lat": 13.02421,
        "lng": 80.27384,
        "has_gps": true
      },
      {
        "seq": 6,
        "name": "A.M.S.HOSPITAL",
        "lat": 13.01647,
        "lng": 80.25963,
        "has_gps": true
      },
      {
        "seq": 7,
        "name": "ADYAR O.T.",
        "lat": 13.00644,
        "lng": 80.25751,
        "has_gps": true
      },
      {
        "seq": 8,
        "name": "ADYAR DEPOT",
        "lat": 12.996827,
        "lng": 80.255645,
        "has_gps": true
      },
      {
        "seq": 9,
        "name": "SRP TOOLS",
        "lat": 12.97873,
        "lng": 80.252629,
        "has_gps": true
      },
      {
        "seq": 10,
        "name": "KANDANCHAVADI",
        "lat": 12.966938,
        "lng": 80.247971,
        "has_gps": true
      },
      {
        "seq": 11,
        "name": "THORAPPAKKAM TEA SHOP",
        "lat": 12.952012,
        "lng": 80.242241,
        "has_gps": true
      },
      {
        "seq": 12,
        "name": "OKK.THORAIPAKM SEC.COLONY",
        "lat": null,
        "lng": null,
        "has_gps": false
      }
    ],
    "stop_count": 12,
    "gps_coverage_pct": 83.3
  },
  "102X": {
    "route_id": "102X",
    "stops": [
      {
        "seq": 1,
        "name": "BROADWAY",
        "lat": 13.087596,
        "lng": 80.283738,
        "has_gps": true
      },
      {
        "seq": 2,
        "name": "SECRETARIAT",
        "lat": 13.080559,
        "lng": 80.288201,
        "has_gps": true
      },
      {
        "seq": 3,
        "name": "CHEPAUK",
        "lat": 13.05757,
        "lng": 80.28191,
        "has_gps": true
      },
      {
        "seq": 4,
        "name": "Q.M.C",
        "lat": null,
        "lng": null,
        "has_gps": false
      },
      {
        "seq": 5,
        "name": "FORESHORE ESTATE",
        "lat": 13.02421,
        "lng": 80.27384,
        "has_gps": true
      },
      {
        "seq": 6,
        "name": "A.M.S.HOSPITAL",
        "lat": 13.01647,
        "lng": 80.25963,
        "has_gps": true
      },
      {
        "seq": 7,
        "name": "ADYAR O.T.",
        "lat": 13.00644,
        "lng": 80.25751,
        "has_gps": true
      },
      {
        "seq": 8,
        "name": "INDIRA NAGAR WATER TANK",
        "lat": 12.994577,
        "lng": 80.252523,
        "has_gps": true
      },
      {
        "seq": 9,
        "name": "SRP TOOLS",
        "lat": 12.97873,
        "lng": 80.252629,
        "has_gps": true
      },
      {
        "seq": 10,
        "name": "KANDANCHAVADI",
        "lat": 12.966938,
        "lng": 80.247971,
        "has_gps": true
      },
      {
        "seq": 11,
        "name": "THORAPPAKKAM TEA SHOP",
        "lat": 12.952012,
        "lng": 80.242241,
        "has_gps": true
      },
      {
        "seq": 12,
        "name": "MOOTAKARAN CHAVADI",
        "lat": 12.929949,
        "lng": 80.231094,
        "has_gps": true
      },
      {
        "seq": 13,
        "name": "KARAPAKKAM",
        "lat": 12.913535,
        "lng": 80.229182,
        "has_gps": true
      },
      {
        "seq": 14,
        "name": "SHOZHANGANALLUR P.U.OFFICE",
        "lat": 12.90117,
        "lng": 80.22569,
        "has_gps": true
      },
      {
        "seq": 15,
        "name": "KUMARAN NAGAR",
        "lat": 13.029201,
        "lng": 80.224215,
        "has_gps": true
      },
      {
        "seq": 16,
        "name": "SEMMANCHERI",
        "lat": 12.85971,
        "lng": 80.226528,
        "has_gps": true
      },
      {
        "seq": 17,
        "name": "NAVALUR",
        "lat": 12.84493,
        "lng": 80.226769,
        "has_gps": true
      },
      {
        "seq": 18,
        "name": "CHURCH",
        "lat": null,
        "lng": null,
        "has_gps": false
      },
      {
        "seq": 19,
        "name": "PALAVASTHIC CHEMICALS",
        "lat": 12.816585,
        "lng": 80.229683,
        "has_gps": true
      },
      {
        "seq": 20,
        "name": "HINDUSTAN ENG. COLLEGE",
        "lat": 12.801308,
        "lng": 80.223732,
        "has_gps": true
      },
      {
        "seq": 21,
        "name": "KELAMBAKKAM",
        "lat": 12.786357,
        "lng": 80.221931,
        "has_gps": true
      },
      {
        "seq": 22,
        "name": "CHENGAMMAL RD. JN.",
        "lat": null,
        "lng": null,
        "has_gps": false
      },
      {
        "seq": 23,
        "name": "KOMAN NAGAR RD JN.",
        "lat": 12.744287,
        "lng": 80.200479,
        "has_gps": true
      },
      {
        "seq": 24,
        "name": "KALAVAKKAM TEA STALL",
        "lat": null,
        "lng": null,
        "has_gps": false
      },
      {
        "seq": 25,
        "name": "THIRUPORUR",
        "lat": null,
        "lng": null,
        "has_gps": false
      }
    ],
    "stop_count": 25,
    "gps_coverage_pct": 80.0
  },
  "104": {
    "route_id": "104",
    "stops": [
      {
        "seq": 1,
        "name": "REDHILLS",
        "lat": 13.1914,
        "lng": 80.18552,
        "has_gps": true
      },
      {
        "seq": 2,
        "name": "AYURVEDHA ASHARAMAM",
        "lat": 13.18212,
        "lng": 80.1929,
        "has_gps": true
      },
      {
        "seq": 3,
        "name": "KAVANGARAI",
        "lat": 13.170355,
        "lng": 80.199438,
        "has_gps": true
      },
      {
        "seq": 4,
        "name": "SCREW FACTORY",
        "lat": 13.15894,
        "lng": 80.19699,
        "has_gps": true
      },
      {
        "seq": 5,
        "name": "SURAPEDU",
        "lat": 13.1446,
        "lng": 80.18818,
        "has_gps": true
      },
      {
        "seq": 6,
        "name": "KALLIKUPPAM",
        "lat": 13.13231,
        "lng": 80.17299,
        "has_gps": true
      },
      {
        "seq": 7,
        "name": "PUDUR",
        "lat": 13.13039,
        "lng": 80.15857,
        "has_gps": true
      },
      {
        "seq": 8,
        "name": "AMBATTUR O.T.",
        "lat": null,
        "lng": null,
        "has_gps": false
      },
      {
        "seq": 9,
        "name": "DUNLOP",
        "lat": 13.10531,
        "lng": 80.15222,
        "has_gps": true
      },
      {
        "seq": 10,
        "name": "AMBATTUR I.E.",
        "lat": null,
        "lng": null,
        "has_gps": false
      },
      {
        "seq": 11,
        "name": "NALAMBUR SERVICE RD",
        "lat": null,
        "lng": null,
        "has_gps": false
      },
      {
        "seq": 12,
        "name": "MADURAVOYAL JN",
        "lat": 13.0615,
        "lng": 80.1644,
        "has_gps": true
      },
      {
        "seq": 13,
        "name": "TVS MCC MOTORS",
        "lat": null,
        "lng": null,
        "has_gps": false
      },
      {
        "seq": 14,
        "name": "TOLL PLAZA",
        "lat": null,
        "lng": null,
        "has_gps": false
      },
      {
        "seq": 15,
        "name": "PORUR JN",
        "lat": 13.034636,
        "lng": 80.156368,
        "has_gps": true
      },
      {
        "seq": 16,
        "name": "MANGADU RD JN",
        "lat": null,
        "lng": null,
        "has_gps": false
      },
      {
        "seq": 17,
        "name": "KOVOOR RD JN",
        "lat": null,
        "lng": null,
        "has_gps": false
      },
      {
        "seq": 18,
        "name": "PAMMAL ADAYAR BRIDGE",
        "lat": null,
        "lng": null,
        "has_gps": false
      },
      {
        "seq": 19,
        "name": "THENDRAL NAGAR",
        "lat": 12.986397,
        "lng": 80.197334,
        "has_gps": true
      },
      {
        "seq": 20,
        "name": "THIRUNEERMALAI RD JN.",
        "lat": 12.9645,
        "lng": 80.11634,
        "has_gps": true
      },
      {
        "seq": 21,
        "name": "PETROL BUNK",
        "lat": null,
        "lng": null,
        "has_gps": false
      },
      {
        "seq": 22,
        "name": "MUDICHUR RD JN.",
        "lat": null,
        "lng": null,
        "has_gps": false
      },
      {
        "seq": 23,
        "name": "IRUMBULIYUR",
        "lat": 12.916638,
        "lng": 80.106802,
        "has_gps": true
      },
      {
        "seq": 24,
        "name": "TAMBARAM",
        "lat": 12.92518,
        "lng": 80.11552,
        "has_gps": true
      }
    ],
    "stop_count": 24,
    "gps_coverage_pct": 58.3
  },
  "104C": {
    "route_id": "104C",
    "stops": [
      {
        "seq": 1,
        "name": "M.G.R.KOYAMBEDU",
        "lat": null,
        "lng": null,
        "has_gps": false
      },
      {
        "seq": 2,
        "name": "KOYAMBEDU SCHOOL",
        "lat": null,
        "lng": null,
        "has_gps": false
      },
      {
        "seq": 3,
        "name": "NERKUNDRAM",
        "lat": 13.07162,
        "lng": 80.18569,
        "has_gps": true
      },
      {
        "seq": 4,
        "name": "MADURAVOYAL",
        "lat": 13.0615,
        "lng": 80.1644,
        "has_gps": true
      },
      {
        "seq": 5,
        "name": "TVS MCC MOTORS",
        "lat": null,
        "lng": null,
        "has_gps": false
      },
      {
        "seq": 6,
        "name": "TOLL PLAZA",
        "lat": null,
        "lng": null,
        "has_gps": false
      },
      {
        "seq": 7,
        "name": "PORUR JN",
        "lat": 13.034636,
        "lng": 80.156368,
        "has_gps": true
      },
      {
        "seq": 8,
        "name": "MANGADU RD JN",
        "lat": null,
        "lng": null,
        "has_gps": false
      },
      {
        "seq": 9,
        "name": "KOVOOR RD JN",
        "lat": null,
        "lng": null,
        "has_gps": false
      },
      {
        "seq": 10,
        "name": "PAMMAL ADAYAR BRIDGE",
        "lat": null,
        "lng": null,
        "has_gps": false
      },
      {
        "seq": 11,
        "name": "THENDRAL NAGAR",
        "lat": 12.986397,
        "lng": 80.197334,
        "has_gps": true
      },
      {
        "seq": 12,
        "name": "THIRUNEERMALAI RD.JN.",
        "lat": 12.9645,
        "lng": 80.11634,
        "has_gps": true
      },
      {
        "seq": 13,
        "name": "PETROL BUNK",
        "lat": null,
        "lng": null,
        "has_gps": false
      },
      {
        "seq": 14,
        "name": "MUDICHUR RD.JN.",
        "lat": null,
        "lng": null,
        "has_gps": false
      },
      {
        "seq": 15,
        "name": "PERUNGALATHUR",
        "lat": 12.905657,
        "lng": 80.096009,
        "has_gps": true
      },
      {
        "seq": 16,
        "name": "VANDALUR GATE",
        "lat": 12.89351,
        "lng": 80.08641,
        "has_gps": true
      },
      {
        "seq": 17,
        "name": "VANDALUR ZOO",
        "lat": 12.880288,
        "lng": 80.080472,
        "has_gps": true
      },
      {
        "seq": 18,
        "name": "URAPAKKAM",
        "lat": 12.951706,
        "lng": 80.241742,
        "has_gps": true
      },
      {
        "seq": 19,
        "name": "PALAKKA COMPANY",
        "lat": null,
        "lng": null,
        "has_gps": false
      },
      {
        "seq": 20,
        "name": "GUDUVANCHERY",
        "lat": 12.84548,
        "lng": 80.061448,
        "has_gps": true
      }
    ],
    "stop_count": 20,
    "gps_coverage_pct": 50.0
  },
  "105": {
    "route_id": "105",
    "stops": [
      {
        "seq": 1,
        "name": "TAMBARAM WEST",
        "lat": 12.926966,
        "lng": 80.11798,
        "has_gps": true
      },
      {
        "seq": 2,
        "name": "TAMBARAM EAST",
        "lat": 12.923362,
        "lng": 80.121836,
        "has_gps": true
      },
      {
        "seq": 3,
        "name": "CONVENT",
        "lat": 12.92309,
        "lng": 80.12621,
        "has_gps": true
      },
      {
        "seq": 4,
        "name": "MAHALAKSHMI NAGAR",
        "lat": 12.922695,
        "lng": 80.146978,
        "has_gps": true
      },
      {
        "seq": 5,
        "name": "S.I.V.E.T",
        "lat": 12.92135,
        "lng": 80.16673,
        "has_gps": true
      },
      {
        "seq": 6,
        "name": "MEDAVAKKAM RD.JN.",
        "lat": 12.96605,
        "lng": 80.18866,
        "has_gps": true
      },
      {
        "seq": 7,
        "name": "CHITHALAPAKKAM",
        "lat": 12.88725,
        "lng": 80.18423,
        "has_gps": true
      },
      {
        "seq": 8,
        "name": "ARASANKAZHANI",
        "lat": null,
        "lng": null,
        "has_gps": false
      },
      {
        "seq": 9,
        "name": "OTTIAMBAKKAM",
        "lat": 13.026128,
        "lng": 80.275338,
        "has_gps": true
      },
      {
        "seq": 10,
        "name": "THAZHAMBUR ROAD JN",
        "lat": null,
        "lng": null,
        "has_gps": false
      },
      {
        "seq": 11,
        "name": "THAZHAMBUR PANCHAYAT OFFICE",
        "lat": null,
        "lng": null,
        "has_gps": false
      },
      {
        "seq": 12,
        "name": "NAVALUR",
        "lat": 12.84493,
        "lng": 80.226769,
        "has_gps": true
      },
      {
        "seq": 13,
        "name": "SIPCOT",
        "lat": 12.830953,
        "lng": 80.229335,
        "has_gps": true
      },
      {
        "seq": 14,
        "name": "SIRUSERI I.T.PARK",
        "lat": null,
        "lng": null,
        "has_gps": false
      }
    ],
    "stop_count": 14,
    "gps_coverage_pct": 71.4
  },
  "105A": {
    "route_id": "105A",
    "stops": [
      {
        "seq": 1,
        "name": "TAMBARAM WEST",
        "lat": 12.926966,
        "lng": 80.11798,
        "has_gps": true
      },
      {
        "seq": 2,
        "name": "TAMBARAM EAST",
        "lat": 12.923362,
        "lng": 80.121836,
        "has_gps": true
      },
      {
        "seq": 3,
        "name": "CONVENT",
        "lat": 12.92309,
        "lng": 80.12621,
        "has_gps": true
      },
      {
        "seq": 4,
        "name": "CAMP ROAD",
        "lat": 12.922588,
        "lng": 80.14359,
        "has_gps": true
      },
      {
        "seq": 5,
        "name": "BALAJI NAGAR (BHARATH ENG COL)",
        "lat": null,
        "lng": null,
        "has_gps": false
      },
      {
        "seq": 6,
        "name": "MADAMBAKKAM KOIL",
        "lat": null,
        "lng": null,
        "has_gps": false
      },
      {
        "seq": 7,
        "name": "NOOTHANCHERI",
        "lat": 12.90084,
        "lng": 80.16852,
        "has_gps": true
      },
      {
        "seq": 8,
        "name": "JN.OF MAMBAKKAM & O.BAKKAM RD.",
        "lat": 12.89392,
        "lng": 80.18023,
        "has_gps": true
      },
      {
        "seq": 9,
        "name": "CHITHALAPAKKAM",
        "lat": 12.88725,
        "lng": 80.18423,
        "has_gps": true
      },
      {
        "seq": 10,
        "name": "ARASANKAZHANI",
        "lat": null,
        "lng": null,
        "has_gps": false
      },
      {
        "seq": 11,
        "name": "OTTIAMBAKKAM",
        "lat": 13.026128,
        "lng": 80.275338,
        "has_gps": true
      },
      {
        "seq": 12,
        "name": "KARANAI",
        "lat": null,
        "lng": null,
        "has_gps": false
      },
      {
        "seq": 13,
        "name": "THALAMBUR",
        "lat": null,
        "lng": null,
        "has_gps": false
      },
      {
        "seq": 14,
        "name": "NAVALUR",
        "lat": 12.84493,
        "lng": 80.226769,
        "has_gps": true
      },
      {
        "seq": 15,
        "name": "SIPCOT",
        "lat": 12.830953,
        "lng": 80.229335,
        "has_gps": true
      },
      {
        "seq": 16,
        "name": "SIRUSERI I.T.PARK",
        "lat": null,
        "lng": null,
        "has_gps": false
      }
    ],
    "stop_count": 16,
    "gps_coverage_pct": 62.5
  },
  "109": {
    "route_id": "109",
    "stops": [
      {
        "seq": 1,
        "name": "BROADWAY",
        "lat": 13.087596,
        "lng": 80.283738,
        "has_gps": true
      },
      {
        "seq": 2,
        "name": "SECRETARIAT",
        "lat": 13.080559,
        "lng": 80.288201,
        "has_gps": true
      },
      {
        "seq": 3,
        "name": "CHEPAUK",
        "lat": 13.05757,
        "lng": 80.28191,
        "has_gps": true
      },
      {
        "seq": 4,
        "name": "Q.M.C",
        "lat": null,
        "lng": null,
        "has_gps": false
      },
      {
        "seq": 5,
        "name": "FORESHORE ESTATE",
        "lat": 13.02421,
        "lng": 80.27384,
        "has_gps": true
      },
      {
        "seq": 6,
        "name": "A.M.S.HOSPITAL",
        "lat": 13.01647,
        "lng": 80.25963,
        "has_gps": true
      },
      {
        "seq": 7,
        "name": "ADYAR O.T.",
        "lat": 13.00644,
        "lng": 80.25751,
        "has_gps": true
      },
      {
        "seq": 8,
        "name": "ADYAR DEPOT",
        "lat": 12.996827,
        "lng": 80.255645,
        "has_gps": true
      },
      {
        "seq": 9,
        "name": "THIRUVANMIYUR",
        "lat": 12.98688,
        "lng": 80.2589,
        "has_gps": true
      },
      {
        "seq": 10,
        "name": "KOTTIVAKKAM",
        "lat": 12.97027,
        "lng": 80.25805,
        "has_gps": true
      },
      {
        "seq": 11,
        "name": "PALAVAKKAM",
        "lat": 12.9568,
        "lng": 80.25487,
        "has_gps": true
      },
      {
        "seq": 12,
        "name": "NEELANKARAI",
        "lat": null,
        "lng": null,
        "has_gps": false
      },
      {
        "seq": 13,
        "name": "VETTUVANKENI",
        "lat": 12.93781,
        "lng": 80.25247,
        "has_gps": true
      },
      {
        "seq": 14,
        "name": "CHOLA MANDAL",
        "lat": null,
        "lng": null,
        "has_gps": false
      },
      {
        "seq": 15,
        "name": "INJAMBAKKAM",
        "lat": 12.91698,
        "lng": 80.25092,
        "has_gps": true
      },
      {
        "seq": 16,
        "name": "PANAIYUR",
        "lat": 12.89966,
        "lng": 80.2474,
        "has_gps": true
      },
      {
        "seq": 17,
        "name": "UTHANDI VILLAGE",
        "lat": 12.87607,
        "lng": 80.24311,
        "has_gps": true
      },
      {
        "seq": 18,
        "name": "KANATHUR",
        "lat": 13.25064,
        "lng": 80.14166,
        "has_gps": true
      },
      {
        "seq": 19,
        "name": "NATURE CARE HOSPITAL",
        "lat": null,
        "lng": null,
        "has_gps": false
      },
      {
        "seq": 20,
        "name": "MUTTUKKADU",
        "lat": null,
        "lng": null,
        "has_gps": false
      },
      {
        "seq": 21,
        "name": "MUTTUKKADU BOAT YARD",
        "lat": null,
        "lng": null,
        "has_gps": false
      },
      {
        "seq": 22,
        "name": "KOVALAM",
        "lat": 12.78667,
        "lng": 80.24991,
        "has_gps": true
      }
    ],
    "stop_count": 22,
    "gps_coverage_pct": 72.7
  },
  "109CT": {
    "route_id": "109CT",
    "stops": [
      {
        "seq": 1,
        "name": "ADYAR B.S.",
        "lat": null,
        "lng": null,
        "has_gps": false
      },
      {
        "seq": 2,
        "name": "ADYAR DEPOT",
        "lat": 12.996827,
        "lng": 80.255645,
        "has_gps": true
      },
      {
        "seq": 3,
        "name": "THIRUVANMIYUR",
        "lat": 12.98688,
        "lng": 80.2589,
        "has_gps": true
      },
      {
        "seq": 4,
        "name": "KOTTIVAKKAM",
        "lat": 12.97027,
        "lng": 80.25805,
        "has_gps": true
      },
      {
        "seq": 5,
        "name": "PALAVAKKAM",
        "lat": 12.9568,
        "lng": 80.25487,
        "has_gps": true
      },
      {
        "seq": 6,
        "name": "NEELANKARAI",
        "lat": null,
        "lng": null,
        "has_gps": false
      },
      {
        "seq": 7,
        "name": "VETTUVANKENI",
        "lat": 12.93781,
        "lng": 80.25247,
        "has_gps": true
      },
      {
        "seq": 8,
        "name": "CHOLA MANDAL",
        "lat": null,
        "lng": null,
        "has_gps": false
      },
      {
        "seq": 9,
        "name": "INJAMBAKKAM",
        "lat": 12.91698,
        "lng": 80.25092,
        "has_gps": true
      },
      {
        "seq": 10,
        "name": "PANAIYUR",
        "lat": 12.89966,
        "lng": 80.2474,
        "has_gps": true
      },
      {
        "seq": 11,
        "name": "UTHANDI VILLAGE",
        "lat": 12.87607,
        "lng": 80.24311,
        "has_gps": true
      },
      {
        "seq": 12,
        "name": "KANATHUR",
        "lat": 13.25064,
        "lng": 80.14166,
        "has_gps": true
      },
      {
        "seq": 13,
        "name": "NATURE CARE HOSPITAL",
        "lat": null,
        "lng": null,
        "has_gps": false
      },
      {
        "seq": 14,
        "name": "MUTTUKKADU",
        "lat": null,
        "lng": null,
        "has_gps": false
      },
      {
        "seq": 15,
        "name": "MUTTUKKADU BOAT YARD",
        "lat": null,
        "lng": null,
        "has_gps": false
      },
      {
        "seq": 16,
        "name": "KOVALAM",
        "lat": 12.78667,
        "lng": 80.24991,
        "has_gps": true
      }
    ],
    "stop_count": 16,
    "gps_coverage_pct": 62.5
  },
  "109T": {
    "route_id": "109T",
    "stops": [
      {
        "seq": 1,
        "name": "THIRUVOTRIYUR",
        "lat": 13.17224,
        "lng": 80.30546,
        "has_gps": true
      },
      {
        "seq": 2,
        "name": "THRUVOTRIYUR TEMPLE",
        "lat": null,
        "lng": null,
        "has_gps": false
      },
      {
        "seq": 3,
        "name": "THANGAL",
        "lat": 13.14788,
        "lng": 80.2972,
        "has_gps": true
      },
      {
        "seq": 4,
        "name": "ANNA NAGAR",
        "lat": 12.931302,
        "lng": 80.238473,
        "has_gps": true
      },
      {
        "seq": 5,
        "name": "ROYAPURAM P.S",
        "lat": 13.10893,
        "lng": 80.29177,
        "has_gps": true
      },
      {
        "seq": 6,
        "name": "CLIVE BATTERY",
        "lat": 13.10159,
        "lng": 80.29435,
        "has_gps": true
      },
      {
        "seq": 7,
        "name": "PARRYS",
        "lat": 13.08523,
        "lng": 80.0,
        "has_gps": true
      },
      {
        "seq": 8,
        "name": "SECRETARIAT",
        "lat": 13.080559,
        "lng": 80.288201,
        "has_gps": true
      },
      {
        "seq": 9,
        "name": "CHEPAUK",
        "lat": 13.05757,
        "lng": 80.28191,
        "has_gps": true
      },
      {
        "seq": 10,
        "name": "Q.M.C",
        "lat": null,
        "lng": null,
        "has_gps": false
      },
      {
        "seq": 11,
        "name": "FORESHORE ESTATE",
        "lat": 13.02421,
        "lng": 80.27384,
        "has_gps": true
      },
      {
        "seq": 12,
        "name": "A.M.S.HOSPITAL",
        "lat": 13.01647,
        "lng": 80.25963,
        "has_gps": true
      },
      {
        "seq": 13,
        "name": "ADYAR O.T.",
        "lat": 13.00644,
        "lng": 80.25751,
        "has_gps": true
      },
      {
        "seq": 14,
        "name": "ADYAR DEPOT",
        "lat": 12.996827,
        "lng": 80.255645,
        "has_gps": true
      },
      {
        "seq": 15,
        "name": "THIRUVANMIYUR",
        "lat": 12.98688,
        "lng": 80.2589,
        "has_gps": true
      },
      {
        "seq": 16,
        "name": "KOTTIVAKKAM",
        "lat": 12.97027,
        "lng": 80.25805,
        "has_gps": true
      },
      {
        "seq": 17,
        "name": "PALAVAKKAM",
        "lat": 12.9568,
        "lng": 80.25487,
        "has_gps": true
      },
      {
        "seq": 18,
        "name": "NEELANKARAI",
        "lat": null,
        "lng": null,
        "has_gps": false
      },
      {
        "seq": 19,
        "name": "VETTUVANKENI",
        "lat": 12.93781,
        "lng": 80.25247,
        "has_gps": true
      },
      {
        "seq": 20,
        "name": "CHOLA MANDAL",
        "lat": null,
        "lng": null,
        "has_gps": false
      },
      {
        "seq": 21,
        "name": "INJAMBAKKAM",
        "lat": 12.91698,
        "lng": 80.25092,
        "has_gps": true
      },
      {
        "seq": 22,
        "name": "PANAIYUR",
        "lat": 12.89966,
        "lng": 80.2474,
        "has_gps": true
      },
      {
        "seq": 23,
        "name": "UTHANDI VILLAGE",
        "lat": 12.87607,
        "lng": 80.24311,
        "has_gps": true
      },
      {
        "seq": 24,
        "name": "KANATHUR",
        "lat": 13.25064,
        "lng": 80.14166,
        "has_gps": true
      },
      {
        "seq": 25,
        "name": "NATURE CARE HOSPITAL",
        "lat": null,
        "lng": null,
        "has_gps": false
      },
      {
        "seq": 26,
        "name": "MUTTUKKADU",
        "lat": null,
        "lng": null,
        "has_gps": false
      },
      {
        "seq": 27,
        "name": "MUTTUKKADU BOAT YARD",
        "lat": null,
        "lng": null,
        "has_gps": false
      },
      {
        "seq": 28,
        "name": "KOVALAM",
        "lat": 12.78667,
        "lng": 80.24991,
        "has_gps": true
      }
    ],
    "stop_count": 28,
    "gps_coverage_pct": 75.0
  },
  "109X": {
    "route_id": "109X",
    "stops": [
      {
        "seq": 1,
        "name": "BROADWAY",
        "lat": 13.087596,
        "lng": 80.283738,
        "has_gps": true
      },
      {
        "seq": 2,
        "name": "SECRETARIAT",
        "lat": 13.080559,
        "lng": 80.288201,
        "has_gps": true
      },
      {
        "seq": 3,
        "name": "CHEPAUK",
        "lat": 13.05757,
        "lng": 80.28191,
        "has_gps": true
      },
      {
        "seq": 4,
        "name": "Q.M.ARTS COLLEGE",
        "lat": null,
        "lng": null,
        "has_gps": false
      },
      {
        "seq": 5,
        "name": "FORESHORE ESTATE",
        "lat": 13.02421,
        "lng": 80.27384,
        "has_gps": true
      },
      {
        "seq": 6,
        "name": "A.M.S.HOSPITAL",
        "lat": 13.01647,
        "lng": 80.25963,
        "has_gps": true
      },
      {
        "seq": 7,
        "name": "ADYAR O.T.",
        "lat": 13.00644,
        "lng": 80.25751,
        "has_gps": true
      },
      {
        "seq": 8,
        "name": "ADYAR DEPOT",
        "lat": 12.996827,
        "lng": 80.255645,
        "has_gps": true
      },
      {
        "seq": 9,
        "name": "THIRUVANMIYUR",
        "lat": 12.98688,
        "lng": 80.2589,
        "has_gps": true
      },
      {
        "seq": 10,
        "name": "KOTTIVAKKAM",
        "lat": 12.97027,
        "lng": 80.25805,
        "has_gps": true
      },
      {
        "seq": 11,
        "name": "PALAVAKKAM",
        "lat": 12.9568,
        "lng": 80.25487,
        "has_gps": true
      },
      {
        "seq": 12,
        "name": "NEELANKARAI",
        "lat": null,
        "lng": null,
        "has_gps": false
      },
      {
        "seq": 13,
        "name": "VETTUVANKENI",
        "lat": 12.93781,
        "lng": 80.25247,
        "has_gps": true
      },
      {
        "seq": 14,
        "name": "CHOLA MANDAL",
        "lat": null,
        "lng": null,
        "has_gps": false
      },
      {
        "seq": 15,
        "name": "INJAMBAKKAM",
        "lat": 12.91698,
        "lng": 80.25092,
        "has_gps": true
      },
      {
        "seq": 16,
        "name": "PANAIYUR",
        "lat": 12.89966,
        "lng": 80.2474,
        "has_gps": true
      },
      {
        "seq": 17,
        "name": "UTHANDI VILLAGE",
        "lat": 12.87607,
        "lng": 80.24311,
        "has_gps": true
      },
      {
        "seq": 18,
        "name": "KANATHUR",
        "lat": 13.25064,
        "lng": 80.14166,
        "has_gps": true
      },
      {
        "seq": 19,
        "name": "NATURE CARE HOSPITAL",
        "lat": null,
        "lng": null,
        "has_gps": false
      },
      {
        "seq": 20,
        "name": "MUTTUKKADU",
        "lat": null,
        "lng": null,
        "has_gps": false
      },
      {
        "seq": 21,
        "name": "MUTTUKKADU BOAT YARD",
        "lat": null,
        "lng": null,
        "has_gps": false
      },
      {
        "seq": 22,
        "name": "KOVALAM",
        "lat": 12.78667,
        "lng": 80.24991,
        "has_gps": true
      },
      {
        "seq": 23,
        "name": "SALT OFFICE",
        "lat": null,
        "lng": null,
        "has_gps": false
      },
      {
        "seq": 24,
        "name": "KELAMBAKKAM",
        "lat": 12.786357,
        "lng": 80.221931,
        "has_gps": true
      },
      {
        "seq": 25,
        "name": "CHENGAMMAL RD. JN.",
        "lat": null,
        "lng": null,
        "has_gps": false
      },
      {
        "seq": 26,
        "name": "KOMAN NAGAR RD JN.",
        "lat": 12.744287,
        "lng": 80.200479,
        "has_gps": true
      },
      {
        "seq": 27,
        "name": "KALAVAKKAM TEA STALL",
        "lat": null,
        "lng": null,
        "has_gps": false
      },
      {
        "seq": 28,
        "name": "THIRUPORUR",
        "lat": null,
        "lng": null,
        "has_gps": false
      }
    ],
    "stop_count": 28,
    "gps_coverage_pct": 64.3
  },
  "10A": {
    "route_id": "10A",
    "stops": [
      {
        "seq": 1,
        "name": "TOLLGATE",
        "lat": 13.14429,
        "lng": 80.28472,
        "has_gps": true
      },
      {
        "seq": 2,
        "name": "TONDAIAYRPET",
        "lat": 13.12623,
        "lng": 80.2904,
        "has_gps": true
      },
      {
        "seq": 3,
        "name": "KALMANDAPAM P.S.",
        "lat": null,
        "lng": null,
        "has_gps": false
      },
      {
        "seq": 4,
        "name": "CLIVE BATTERY",
        "lat": 13.10159,
        "lng": 80.29435,
        "has_gps": true
      },
      {
        "seq": 5,
        "name": "PARRYS\\BROADWAY",
        "lat": null,
        "lng": null,
        "has_gps": false
      },
      {
        "seq": 6,
        "name": "M.G.R.CENTRAL",
        "lat": null,
        "lng": null,
        "has_gps": false
      },
      {
        "seq": 7,
        "name": "EGMORE",
        "lat": 13.07751,
        "lng": 80.26139,
        "has_gps": true
      },
      {
        "seq": 8,
        "name": "MATERNITY HOSPITAL",
        "lat": 13.0707,
        "lng": 80.25813,
        "has_gps": true
      },
      {
        "seq": 9,
        "name": "D.P.I",
        "lat": 13.06754,
        "lng": 80.25202,
        "has_gps": true
      },
      {
        "seq": 10,
        "name": "STERLING RD./METROLOG. DEPT.",
        "lat": null,
        "lng": null,
        "has_gps": false
      },
      {
        "seq": 11,
        "name": "VIDYODAYA",
        "lat": 13.05139,
        "lng": 80.24062,
        "has_gps": true
      },
      {
        "seq": 12,
        "name": "PONDY BAZAAR/VIVEK & CO",
        "lat": null,
        "lng": null,
        "has_gps": false
      },
      {
        "seq": 13,
        "name": "THIAGARAYA NAGAR",
        "lat": 12.99115,
        "lng": 80.19453,
        "has_gps": true
      },
      {
        "seq": 14,
        "name": "SRINIVASA THEATER",
        "lat": 13.031,
        "lng": 80.22432,
        "has_gps": true
      },
      {
        "seq": 15,
        "name": "SAIDAPET WEST",
        "lat": 13.02496,
        "lng": 80.21951,
        "has_gps": true
      }
    ],
    "stop_count": 15,
    "gps_coverage_pct": 66.7
  },
  "10E": {
    "route_id": "10E",
    "stops": [
      {
        "seq": 1,
        "name": "BROADWAY",
        "lat": 13.087596,
        "lng": 80.283738,
        "has_gps": true
      },
      {
        "seq": 2,
        "name": "M.G.R.CENTRAL",
        "lat": null,
        "lng": null,
        "has_gps": false
      },
      {
        "seq": 3,
        "name": "EGMORE",
        "lat": 13.07751,
        "lng": 80.26139,
        "has_gps": true
      },
      {
        "seq": 4,
        "name": "MATERNITY HOSPITAL",
        "lat": 13.0707,
        "lng": 80.25813,
        "has_gps": true
      },
      {
        "seq": 5,
        "name": "D.P.I",
        "lat": 13.06754,
        "lng": 80.25202,
        "has_gps": true
      },
      {
        "seq": 6,
        "name": "STERLING RD./METROLOG. DEPT.",
        "lat": null,
        "lng": null,
        "has_gps": false
      },
      {
        "seq": 7,
        "name": "VIDYODAYA",
        "lat": 13.05139,
        "lng": 80.24062,
        "has_gps": true
      },
      {
        "seq": 8,
        "name": "VIVEK & CO (KRISHNAN KOIL)",
        "lat": null,
        "lng": null,
        "has_gps": false
      },
      {
        "seq": 9,
        "name": "THIAGARAYA NAGAR",
        "lat": 12.99115,
        "lng": 80.19453,
        "has_gps": true
      },
      {
        "seq": 10,
        "name": "SRINIVASA THEATER",
        "lat": 13.031,
        "lng": 80.22432,
        "has_gps": true
      },
      {
        "seq": 11,
        "name": "GOVT. GIRLS H.SC",
        "lat": 13.03138,
        "lng": 80.216,
        "has_gps": true
      },
      {
        "seq": 12,
        "name": "JAFFARKHAN PET",
        "lat": 13.02874,
        "lng": 80.2086,
        "has_gps": true
      },
      {
        "seq": 13,
        "name": "EKKATTUTHANGAL",
        "lat": null,
        "lng": null,
        "has_gps": false
      }
    ],
    "stop_count": 13,
    "gps_coverage_pct": 69.2
  },
  "11": {
    "route_id": "11",
    "stops": [
      {
        "seq": 1,
        "name": "BROADWAY",
        "lat": 13.087596,
        "lng": 80.283738,
        "has_gps": true
      },
      {
        "seq": 2,
        "name": "M.G.R.CENTRAL",
        "lat": null,
        "lng": null,
        "has_gps": false
      },
      {
        "seq": 3,
        "name": "P.OR & SONS",
        "lat": 13.07512,
        "lng": 80.0,
        "has_gps": true
      },
      {
        "seq": 4,
        "name": "T.V.S",
        "lat": 13.05963,
        "lng": 80.25961,
        "has_gps": true
      },
      {
        "seq": 5,
        "name": "D.M.S",
        "lat": 13.046934,
        "lng": 80.248627,
        "has_gps": true
      },
      {
        "seq": 6,
        "name": "PONDY BAZAAR",
        "lat": 13.040338,
        "lng": 80.239431,
        "has_gps": true
      },
      {
        "seq": 7,
        "name": "THIAGARAYA NAGAR",
        "lat": 12.99115,
        "lng": 80.19453,
        "has_gps": true
      }
    ],
    "stop_count": 7,
    "gps_coverage_pct": 85.7
  },
  "111": {
    "route_id": "111",
    "stops": [
      {
        "seq": 1,
        "name": "THIRUVERKADU",
        "lat": 13.06906,
        "lng": 80.1242,
        "has_gps": true
      },
      {
        "seq": 2,
        "name": "VELAPPANCHAVADI",
        "lat": 13.0615,
        "lng": 80.13814,
        "has_gps": true
      },
      {
        "seq": 3,
        "name": "VAANAGARAM",
        "lat": 13.06134,
        "lng": 80.15153,
        "has_gps": true
      },
      {
        "seq": 4,
        "name": "MADURAVOYAL",
        "lat": 13.0615,
        "lng": 80.1644,
        "has_gps": true
      },
      {
        "seq": 5,
        "name": "NERKUNDRAM",
        "lat": 13.07162,
        "lng": 80.18569,
        "has_gps": true
      },
      {
        "seq": 6,
        "name": "KOYAMBEDU MARKET",
        "lat": null,
        "lng": null,
        "has_gps": false
      },
      {
        "seq": 7,
        "name": "KOYAMBEDU P.S",
        "lat": null,
        "lng": null,
        "has_gps": false
      },
      {
        "seq": 8,
        "name": "M.M.D.A.COLONY RD.JN.",
        "lat": 13.06385,
        "lng": 80.21178,
        "has_gps": true
      },
      {
        "seq": 9,
        "name": "JN OF III AND 1ST AVE",
        "lat": 13.0419,
        "lng": 80.21232,
        "has_gps": true
      },
      {
        "seq": 10,
        "name": "JAFFARKHAN PET",
        "lat": 13.02874,
        "lng": 80.2086,
        "has_gps": true
      },
      {
        "seq": 11,
        "name": "CIPET",
        "lat": 13.01384,
        "lng": 80.20436,
        "has_gps": true
      },
      {
        "seq": 12,
        "name": "ST THOMAS MOUNT PO",
        "lat": 13.00177,
        "lng": 80.20009,
        "has_gps": true
      },
      {
        "seq": 13,
        "name": "MEENAMABAKKAM OLD AIRPORT",
        "lat": 12.9899,
        "lng": 80.17953,
        "has_gps": true
      },
      {
        "seq": 14,
        "name": "THIRUSOOLAM NATIONAL AIRPORT",
        "lat": 12.98043,
        "lng": 80.16495,
        "has_gps": true
      },
      {
        "seq": 15,
        "name": "PALLAVARAM",
        "lat": 12.96809,
        "lng": 80.14887,
        "has_gps": true
      },
      {
        "seq": 16,
        "name": "CHROMEPET",
        "lat": 12.951091,
        "lng": 80.139741,
        "has_gps": true
      },
      {
        "seq": 17,
        "name": "T.B.SANATORIUM",
        "lat": 12.93831,
        "lng": 80.12896,
        "has_gps": true
      },
      {
        "seq": 18,
        "name": "TAMBARAM",
        "lat": 12.92518,
        "lng": 80.11552,
        "has_gps": true
      }
    ],
    "stop_count": 18,
    "gps_coverage_pct": 88.9
  },
  "113": {
    "route_id": "113",
    "stops": [
      {
        "seq": 1,
        "name": "REDHILLS",
        "lat": 13.1914,
        "lng": 80.18552,
        "has_gps": true
      },
      {
        "seq": 2,
        "name": "AAYURVEDA ASHRAMAM",
        "lat": 13.18212,
        "lng": 80.1929,
        "has_gps": true
      },
      {
        "seq": 3,
        "name": "KAVANGARAI",
        "lat": 13.170355,
        "lng": 80.199438,
        "has_gps": true
      },
      {
        "seq": 4,
        "name": "KATHIRVEDU",
        "lat": null,
        "lng": null,
        "has_gps": false
      },
      {
        "seq": 5,
        "name": "VINAYAGAPURAM",
        "lat": 13.13896,
        "lng": 80.20659,
        "has_gps": true
      },
      {
        "seq": 6,
        "name": "MALLIGAI NAGAR AVE",
        "lat": null,
        "lng": null,
        "has_gps": false
      },
      {
        "seq": 7,
        "name": "WATER PIPE THATHANKUPPAM",
        "lat": 13.12061,
        "lng": 80.19899,
        "has_gps": true
      },
      {
        "seq": 8,
        "name": "WEELS INDIA RD.JN.",
        "lat": null,
        "lng": null,
        "has_gps": false
      },
      {
        "seq": 9,
        "name": "THIRUMANGALAM",
        "lat": 13.087306,
        "lng": 80.197796,
        "has_gps": true
      },
      {
        "seq": 10,
        "name": "KOYAMBEDU SCHOOL",
        "lat": null,
        "lng": null,
        "has_gps": false
      },
      {
        "seq": 11,
        "name": "M.M.D.A.COLONY RD.JN.",
        "lat": 13.06385,
        "lng": 80.21178,
        "has_gps": true
      },
      {
        "seq": 12,
        "name": "JN OF III AND 1ST AVE",
        "lat": 13.0419,
        "lng": 80.21232,
        "has_gps": true
      },
      {
        "seq": 13,
        "name": "JAFFARKHAN PET",
        "lat": 13.02874,
        "lng": 80.2086,
        "has_gps": true
      },
      {
        "seq": 14,
        "name": "CIPET",
        "lat": 13.01384,
        "lng": 80.20436,
        "has_gps": true
      },
      {
        "seq": 15,
        "name": "GUINDY TVK ESTATE",
        "lat": 13.009764,
        "lng": 80.211128,
        "has_gps": true
      }
    ],
    "stop_count": 15,
    "gps_coverage_pct": 73.3
  },
  "114": {
    "route_id": "114",
    "stops": [
      {
        "seq": 1,
        "name": "REDHILLS",
        "lat": 13.1914,
        "lng": 80.18552,
        "has_gps": true
      },
      {
        "seq": 2,
        "name": "AAYURVEDA ASHRAMAM",
        "lat": 13.18212,
        "lng": 80.1929,
        "has_gps": true
      },
      {
        "seq": 3,
        "name": "KAVANGARAI",
        "lat": 13.170355,
        "lng": 80.199438,
        "has_gps": true
      },
      {
        "seq": 4,
        "name": "CYCLE SHOP",
        "lat": 13.153057,
        "lng": 80.20869,
        "has_gps": true
      },
      {
        "seq": 5,
        "name": "BUS BAY-17TH KM",
        "lat": 13.14401,
        "lng": 80.22097,
        "has_gps": true
      },
      {
        "seq": 6,
        "name": "MALLIGAI NAGAR AVE",
        "lat": null,
        "lng": null,
        "has_gps": false
      },
      {
        "seq": 7,
        "name": "WATER PIPE THATHANKUPPAM",
        "lat": 13.12061,
        "lng": 80.19899,
        "has_gps": true
      },
      {
        "seq": 8,
        "name": "WEELS INDIA RD.JN.",
        "lat": null,
        "lng": null,
        "has_gps": false
      },
      {
        "seq": 9,
        "name": "THIRUMANGALAM",
        "lat": 13.087306,
        "lng": 80.197796,
        "has_gps": true
      },
      {
        "seq": 10,
        "name": "KOYAMBEDU SCHOOL",
        "lat": null,
        "lng": null,
        "has_gps": false
      },
      {
        "seq": 11,
        "name": "M.G.R.KOYAMBEDU",
        "lat": null,
        "lng": null,
        "has_gps": false
      }
    ],
    "stop_count": 11,
    "gps_coverage_pct": 63.6
  },
  "114A": {
    "route_id": "114A",
    "stops": [
      {
        "seq": 1,
        "name": "REDHILLS",
        "lat": 13.1914,
        "lng": 80.18552,
        "has_gps": true
      },
      {
        "seq": 2,
        "name": "AAYURVEDA ASHRAMAM",
        "lat": 13.18212,
        "lng": 80.1929,
        "has_gps": true
      },
      {
        "seq": 3,
        "name": "KAVANGARAI",
        "lat": 13.170355,
        "lng": 80.199438,
        "has_gps": true
      },
      {
        "seq": 4,
        "name": "CYCLE SHOP",
        "lat": 13.153057,
        "lng": 80.20869,
        "has_gps": true
      },
      {
        "seq": 5,
        "name": "BUS BAY-17TH KM",
        "lat": 13.14401,
        "lng": 80.22097,
        "has_gps": true
      },
      {
        "seq": 6,
        "name": "MALLIGAI NAGAR AVE",
        "lat": null,
        "lng": null,
        "has_gps": false
      },
      {
        "seq": 7,
        "name": "SRINIVASA NAGAR",
        "lat": 12.964499,
        "lng": 80.211254,
        "has_gps": true
      },
      {
        "seq": 8,
        "name": "VILLIVAKKAM",
        "lat": null,
        "lng": null,
        "has_gps": false
      },
      {
        "seq": 9,
        "name": "KAMABAR ARANGAM",
        "lat": 13.0992,
        "lng": 80.219767,
        "has_gps": true
      },
      {
        "seq": 10,
        "name": "AYANAVARAM B.S.",
        "lat": 13.097412,
        "lng": 80.242783,
        "has_gps": true
      }
    ],
    "stop_count": 10,
    "gps_coverage_pct": 80.0
  },
  "114C": {
    "route_id": "114C",
    "stops": [
      {
        "seq": 1,
        "name": "M.G.R.KOYAMBEDU",
        "lat": null,
        "lng": null,
        "has_gps": false
      },
      {
        "seq": 2,
        "name": "KOYAMBEDU SCHOOL",
        "lat": null,
        "lng": null,
        "has_gps": false
      },
      {
        "seq": 3,
        "name": "THIRUMANGALAM",
        "lat": 13.087306,
        "lng": 80.197796,
        "has_gps": true
      },
      {
        "seq": 4,
        "name": "WEELS INDIA RD.JN.",
        "lat": null,
        "lng": null,
        "has_gps": false
      },
      {
        "seq": 5,
        "name": "WATER PIPE THATHANKUPPAM",
        "lat": 13.12061,
        "lng": 80.19899,
        "has_gps": true
      },
      {
        "seq": 6,
        "name": "MALLIGAI NAGAR AVE",
        "lat": null,
        "lng": null,
        "has_gps": false
      },
      {
        "seq": 7,
        "name": "BUS BAY-17TH KM",
        "lat": 13.14401,
        "lng": 80.22097,
        "has_gps": true
      },
      {
        "seq": 8,
        "name": "CYCLE SHOP",
        "lat": 13.153057,
        "lng": 80.20869,
        "has_gps": true
      },
      {
        "seq": 9,
        "name": "KAVANGARAI",
        "lat": 13.170355,
        "lng": 80.199438,
        "has_gps": true
      },
      {
        "seq": 10,
        "name": "AAYURVEDA ASHRAMAM",
        "lat": 13.18212,
        "lng": 80.1929,
        "has_gps": true
      },
      {
        "seq": 11,
        "name": "REDHILLS",
        "lat": 13.1914,
        "lng": 80.18552,
        "has_gps": true
      },
      {
        "seq": 12,
        "name": "PAMMADU KULAM RD.JN.",
        "lat": null,
        "lng": null,
        "has_gps": false
      },
      {
        "seq": 13,
        "name": "JN.OF RACE COURSE RD",
        "lat": 13.00661,
        "lng": 80.22054,
        "has_gps": true
      },
      {
        "seq": 14,
        "name": "ALAMADHI OLD",
        "lat": 13.20101,
        "lng": 80.14389,
        "has_gps": true
      },
      {
        "seq": 15,
        "name": "DRY CATTLLE FORM",
        "lat": null,
        "lng": null,
        "has_gps": false
      },
      {
        "seq": 16,
        "name": "ALAMADHI",
        "lat": 13.20602,
        "lng": 80.1166,
        "has_gps": true
      },
      {
        "seq": 17,
        "name": "AMBEDKAR NAGAR",
        "lat": null,
        "lng": null,
        "has_gps": false
      },
      {
        "seq": 18,
        "name": "POOCHIATHIPEDU",
        "lat": null,
        "lng": null,
        "has_gps": false
      },
      {
        "seq": 19,
        "name": "GURUVOYAL KARANIBATTAI",
        "lat": 13.21354,
        "lng": 80.06355,
        "has_gps": true
      },
      {
        "seq": 20,
        "name": "GURUVOYAL VILLAGE",
        "lat": null,
        "lng": null,
        "has_gps": false
      },
      {
        "seq": 21,
        "name": "SETHUPAKKAM",
        "lat": 12.951706,
        "lng": 80.241742,
        "has_gps": true
      },
      {
        "seq": 22,
        "name": "AGARAM KANDIGAI",
        "lat": null,
        "lng": null,
        "has_gps": false
      },
      {
        "seq": 23,
        "name": "TAMARAPAKKAM KOOT RD",
        "lat": 12.968297,
        "lng": 80.189496,
        "has_gps": true
      }
    ],
    "stop_count": 23,
    "gps_coverage_pct": 56.5
  },
  "114CCT": {
    "route_id": "114CCT",
    "stops": [
      {
        "seq": 1,
        "name": "M.G.R.KOYAMBEDU",
        "lat": null,
        "lng": null,
        "has_gps": false
      },
      {
        "seq": 2,
        "name": "KOYAMBEDU SCHOOL",
        "lat": null,
        "lng": null,
        "has_gps": false
      },
      {
        "seq": 3,
        "name": "THIRUMANGALAM",
        "lat": 13.087306,
        "lng": 80.197796,
        "has_gps": true
      },
      {
        "seq": 4,
        "name": "WEELS INDIA RD.JN.",
        "lat": null,
        "lng": null,
        "has_gps": false
      },
      {
        "seq": 5,
        "name": "WATER PIPE THATHANKUPPAM",
        "lat": 13.12061,
        "lng": 80.19899,
        "has_gps": true
      },
      {
        "seq": 6,
        "name": "MALLIGAI NAGAR AVE",
        "lat": null,
        "lng": null,
        "has_gps": false
      },
      {
        "seq": 7,
        "name": "BUS BAY-17TH KM",
        "lat": 13.14401,
        "lng": 80.22097,
        "has_gps": true
      },
      {
        "seq": 8,
        "name": "CYCLE SHOP",
        "lat": 13.153057,
        "lng": 80.20869,
        "has_gps": true
      },
      {
        "seq": 9,
        "name": "KAVANGARAI",
        "lat": 13.170355,
        "lng": 80.199438,
        "has_gps": true
      },
      {
        "seq": 10,
        "name": "AAYURVEDA ASHRAMAM",
        "lat": 13.18212,
        "lng": 80.1929,
        "has_gps": true
      },
      {
        "seq": 11,
        "name": "REDHILLS",
        "lat": 13.1914,
        "lng": 80.18552,
        "has_gps": true
      },
      {
        "seq": 12,
        "name": "AZHINJIVAKKAM RD.JN.",
        "lat": null,
        "lng": null,
        "has_gps": false
      },
      {
        "seq": 13,
        "name": "KUMMANUR",
        "lat": 13.21856,
        "lng": 80.19539,
        "has_gps": true
      },
      {
        "seq": 14,
        "name": "BUDUR",
        "lat": 13.23878,
        "lng": 80.19479,
        "has_gps": true
      },
      {
        "seq": 15,
        "name": "ARUMANDAI RD.JN.",
        "lat": 13.22833,
        "lng": 80.21779,
        "has_gps": true
      },
      {
        "seq": 16,
        "name": "PUDUKUPPAM",
        "lat": 13.27504,
        "lng": 80.19857,
        "has_gps": true
      },
      {
        "seq": 17,
        "name": "GNAYARU",
        "lat": 13.26125,
        "lng": 80.21419,
        "has_gps": true
      }
    ],
    "stop_count": 17,
    "gps_coverage_pct": 70.6
  },
  "114D": {
    "route_id": "114D",
    "stops": [
      {
        "seq": 1,
        "name": "ARANI",
        "lat": 12.986035,
        "lng": 80.241066,
        "has_gps": true
      },
      {
        "seq": 2,
        "name": "AGARAM",
        "lat": 13.06134,
        "lng": 80.15153,
        "has_gps": true
      },
      {
        "seq": 3,
        "name": "CHINNAMBEDU VILLAGE",
        "lat": null,
        "lng": null,
        "has_gps": false
      },
      {
        "seq": 4,
        "name": "CHINAMBEDU COLONY",
        "lat": null,
        "lng": null,
        "has_gps": false
      },
      {
        "seq": 5,
        "name": "NEW ROAD",
        "lat": null,
        "lng": null,
        "has_gps": false
      },
      {
        "seq": 6,
        "name": "THATCHUR ROAD JN",
        "lat": null,
        "lng": null,
        "has_gps": false
      },
      {
        "seq": 7,
        "name": "PANJETTI",
        "lat": null,
        "lng": null,
        "has_gps": false
      },
      {
        "seq": 8,
        "name": "PERIYAPALAYAM RD JN.",
        "lat": null,
        "lng": null,
        "has_gps": false
      },
      {
        "seq": 9,
        "name": "KARANODAI",
        "lat": 13.24713,
        "lng": 80.15737,
        "has_gps": true
      },
      {
        "seq": 10,
        "name": "SHOLAVARAM",
        "lat": 13.24103,
        "lng": 80.16028,
        "has_gps": true
      },
      {
        "seq": 11,
        "name": "SEMILIVARAM",
        "lat": 13.22457,
        "lng": 80.16638,
        "has_gps": true
      },
      {
        "seq": 12,
        "name": "PADIYANALLUR",
        "lat": 13.20736,
        "lng": 80.1729,
        "has_gps": true
      },
      {
        "seq": 13,
        "name": "REDHILLS",
        "lat": 13.1914,
        "lng": 80.18552,
        "has_gps": true
      },
      {
        "seq": 14,
        "name": "AAYURVEDA ASHRAMAM",
        "lat": 13.18212,
        "lng": 80.1929,
        "has_gps": true
      },
      {
        "seq": 15,
        "name": "KAVANGARAI",
        "lat": 13.170355,
        "lng": 80.199438,
        "has_gps": true
      },
      {
        "seq": 16,
        "name": "CYCLE SHOP",
        "lat": 13.153057,
        "lng": 80.20869,
        "has_gps": true
      },
      {
        "seq": 17,
        "name": "BUS BAY-17TH KM",
        "lat": 13.14401,
        "lng": 80.22097,
        "has_gps": true
      },
      {
        "seq": 18,
        "name": "MALLIGAI NAGAR AVE",
        "lat": null,
        "lng": null,
        "has_gps": false
      },
      {
        "seq": 19,
        "name": "WATER PIPE THATHANKUPPAM",
        "lat": 13.12061,
        "lng": 80.19899,
        "has_gps": true
      },
      {
        "seq": 20,
        "name": "WEELS INDIA RD.JN.",
        "lat": null,
        "lng": null,
        "has_gps": false
      },
      {
        "seq": 21,
        "name": "THIRUMANGALAM",
        "lat": 13.087306,
        "lng": 80.197796,
        "has_gps": true
      },
      {
        "seq": 22,
        "name": "KOYAMBEDU SCHOOL",
        "lat": null,
        "lng": null,
        "has_gps": false
      },
      {
        "seq": 23,
        "name": "M.G.R.KOYAMBEDU",
        "lat": null,
        "lng": null,
        "has_gps": false
      }
    ],
    "stop_count": 23,
    "gps_coverage_pct": 56.5
  },
  "114E": {
    "route_id": "114E",
    "stops": [
      {
        "seq": 1,
        "name": "KOYAMBEDU MARKET",
        "lat": null,
        "lng": null,
        "has_gps": false
      },
      {
        "seq": 2,
        "name": "KOYAMBEDU P.S",
        "lat": null,
        "lng": null,
        "has_gps": false
      },
      {
        "seq": 3,
        "name": "KOYAMBEDU SCHOOL",
        "lat": null,
        "lng": null,
        "has_gps": false
      },
      {
        "seq": 4,
        "name": "THIRUMANGALAM",
        "lat": 13.087306,
        "lng": 80.197796,
        "has_gps": true
      },
      {
        "seq": 5,
        "name": "WEELS INDIA RD.JN.",
        "lat": null,
        "lng": null,
        "has_gps": false
      },
      {
        "seq": 6,
        "name": "WATER PIPE THATHANKUPPAM",
        "lat": 13.12061,
        "lng": 80.19899,
        "has_gps": true
      },
      {
        "seq": 7,
        "name": "MALLIGAI NAGAR AVE",
        "lat": null,
        "lng": null,
        "has_gps": false
      },
      {
        "seq": 8,
        "name": "BUS BAY-17TH KM",
        "lat": 13.14401,
        "lng": 80.22097,
        "has_gps": true
      },
      {
        "seq": 9,
        "name": "CYCLE SHOP",
        "lat": 13.153057,
        "lng": 80.20869,
        "has_gps": true
      },
      {
        "seq": 10,
        "name": "KAVANGARAI",
        "lat": 13.170355,
        "lng": 80.199438,
        "has_gps": true
      },
      {
        "seq": 11,
        "name": "AAYURVEDA ASHRAMAM",
        "lat": 13.18212,
        "lng": 80.1929,
        "has_gps": true
      },
      {
        "seq": 12,
        "name": "REDHILLS",
        "lat": 13.1914,
        "lng": 80.18552,
        "has_gps": true
      },
      {
        "seq": 13,
        "name": "PADIYANALLUR",
        "lat": 13.20736,
        "lng": 80.1729,
        "has_gps": true
      },
      {
        "seq": 14,
        "name": "SEMILIVARAM",
        "lat": 13.22457,
        "lng": 80.16638,
        "has_gps": true
      },
      {
        "seq": 15,
        "name": "SHOLAVARAM",
        "lat": 13.24103,
        "lng": 80.16028,
        "has_gps": true
      },
      {
        "seq": 16,
        "name": "KARANODAI",
        "lat": 13.24713,
        "lng": 80.15737,
        "has_gps": true
      },
      {
        "seq": 17,
        "name": "ATHUR",
        "lat": 13.25064,
        "lng": 80.14166,
        "has_gps": true
      },
      {
        "seq": 18,
        "name": "OLD&NEW ERUMAI VETTI PALAYAM",
        "lat": null,
        "lng": null,
        "has_gps": false
      },
      {
        "seq": 19,
        "name": "OLD ERUMAI VETTI PALAYAM",
        "lat": null,
        "lng": null,
        "has_gps": false
      },
      {
        "seq": 20,
        "name": "NEW ERUMAIVETTIPALAYAM",
        "lat": null,
        "lng": null,
        "has_gps": false
      }
    ],
    "stop_count": 20,
    "gps_coverage_pct": 60.0
  },
  "114ET": {
    "route_id": "114ET",
    "stops": [
      {
        "seq": 1,
        "name": "MAHINDRA IND.PARK",
        "lat": null,
        "lng": null,
        "has_gps": false
      },
      {
        "seq": 2,
        "name": "KUTHAMKULAM",
        "lat": 13.05682,
        "lng": 80.03222,
        "has_gps": true
      },
      {
        "seq": 3,
        "name": "PERUVOYAL",
        "lat": null,
        "lng": null,
        "has_gps": false
      },
      {
        "seq": 4,
        "name": "PUDUVOYAL",
        "lat": null,
        "lng": null,
        "has_gps": false
      },
      {
        "seq": 5,
        "name": "NEW ROAD",
        "lat": null,
        "lng": null,
        "has_gps": false
      },
      {
        "seq": 6,
        "name": "THATCHUR ROAD JN",
        "lat": null,
        "lng": null,
        "has_gps": false
      },
      {
        "seq": 7,
        "name": "PANJETTI",
        "lat": null,
        "lng": null,
        "has_gps": false
      },
      {
        "seq": 8,
        "name": "PERIYAPALAYAM RD JN.",
        "lat": null,
        "lng": null,
        "has_gps": false
      },
      {
        "seq": 9,
        "name": "KARANODAI",
        "lat": 13.24713,
        "lng": 80.15737,
        "has_gps": true
      },
      {
        "seq": 10,
        "name": "SHOLAVARAM",
        "lat": 13.24103,
        "lng": 80.16028,
        "has_gps": true
      },
      {
        "seq": 11,
        "name": "SEMILIVARAM",
        "lat": 13.22457,
        "lng": 80.16638,
        "has_gps": true
      },
      {
        "seq": 12,
        "name": "PADIYANALLUR",
        "lat": 13.20736,
        "lng": 80.1729,
        "has_gps": true
      },
      {
        "seq": 13,
        "name": "REDHILLS",
        "lat": 13.1914,
        "lng": 80.18552,
        "has_gps": true
      },
      {
        "seq": 14,
        "name": "AAYURVEDA ASHRAMAM",
        "lat": 13.18212,
        "lng": 80.1929,
        "has_gps": true
      },
      {
        "seq": 15,
        "name": "KAVANGARAI",
        "lat": 13.170355,
        "lng": 80.199438,
        "has_gps": true
      },
      {
        "seq": 16,
        "name": "CYCLE SHOP",
        "lat": 13.153057,
        "lng": 80.20869,
        "has_gps": true
      },
      {
        "seq": 17,
        "name": "BUS BAY-17TH KM",
        "lat": 13.14401,
        "lng": 80.22097,
        "has_gps": true
      },
      {
        "seq": 18,
        "name": "MALLIGAI NAGAR AVE",
        "lat": null,
        "lng": null,
        "has_gps": false
      },
      {
        "seq": 19,
        "name": "WATER PIPE THATHANKUPPAM",
        "lat": 13.12061,
        "lng": 80.19899,
        "has_gps": true
      },
      {
        "seq": 20,
        "name": "WEELS INDIA RD.JN.",
        "lat": null,
        "lng": null,
        "has_gps": false
      },
      {
        "seq": 21,
        "name": "THIRUMANGALAM",
        "lat": 13.087306,
        "lng": 80.197796,
        "has_gps": true
      },
      {
        "seq": 22,
        "name": "KOYAMBEDU SCHOOL",
        "lat": null,
        "lng": null,
        "has_gps": false
      },
      {
        "seq": 23,
        "name": "M.G.R.KOYAMBEDU",
        "lat": null,
        "lng": null,
        "has_gps": false
      }
    ],
    "stop_count": 23,
    "gps_coverage_pct": 52.2
  },
  "114G": {
    "route_id": "114G",
    "stops": [
      {
        "seq": 1,
        "name": "M.G.R.KOYAMBEDU",
        "lat": null,
        "lng": null,
        "has_gps": false
      },
      {
        "seq": 2,
        "name": "KOYAMBEDU SCHOOL",
        "lat": null,
        "lng": null,
        "has_gps": false
      },
      {
        "seq": 3,
        "name": "THIRUMANGALAM",
        "lat": 13.087306,
        "lng": 80.197796,
        "has_gps": true
      },
      {
        "seq": 4,
        "name": "WEELS INDIA RD.JN.",
        "lat": null,
        "lng": null,
        "has_gps": false
      },
      {
        "seq": 5,
        "name": "WATER PIPE THATHANKUPPAM",
        "lat": 13.12061,
        "lng": 80.19899,
        "has_gps": true
      },
      {
        "seq": 6,
        "name": "MALLIGAI NAGAR AVE",
        "lat": null,
        "lng": null,
        "has_gps": false
      },
      {
        "seq": 7,
        "name": "BUS BAY-17TH KM",
        "lat": 13.14401,
        "lng": 80.22097,
        "has_gps": true
      },
      {
        "seq": 8,
        "name": "MADHAVARAM",
        "lat": 13.13766,
        "lng": 80.22955,
        "has_gps": true
      },
      {
        "seq": 9,
        "name": "MOOLAKADAI",
        "lat": 13.1292,
        "lng": 80.240765,
        "has_gps": true
      },
      {
        "seq": 10,
        "name": "MADHAVARAM POST BOX",
        "lat": 13.14284,
        "lng": 80.23624,
        "has_gps": true
      },
      {
        "seq": 11,
        "name": "MADHAVARAM VILLAGE",
        "lat": 13.14853,
        "lng": 80.23006,
        "has_gps": true
      },
      {
        "seq": 12,
        "name": "MATHUR RD. JN.,",
        "lat": null,
        "lng": null,
        "has_gps": false
      },
      {
        "seq": 13,
        "name": "VADAPERUMBAKKAM",
        "lat": 13.17494,
        "lng": 80.21547,
        "has_gps": true
      },
      {
        "seq": 14,
        "name": "GRAND LINE",
        "lat": null,
        "lng": null,
        "has_gps": false
      },
      {
        "seq": 15,
        "name": "REDHILLS",
        "lat": 13.1914,
        "lng": 80.18552,
        "has_gps": true
      },
      {
        "seq": 16,
        "name": "PADIYANALLUR",
        "lat": 13.20736,
        "lng": 80.1729,
        "has_gps": true
      },
      {
        "seq": 17,
        "name": "SEMILIVARAM",
        "lat": 13.22457,
        "lng": 80.16638,
        "has_gps": true
      },
      {
        "seq": 18,
        "name": "SHOLAVARAM",
        "lat": 13.24103,
        "lng": 80.16028,
        "has_gps": true
      },
      {
        "seq": 19,
        "name": "SHOZHIPALAYAM",
        "lat": null,
        "lng": null,
        "has_gps": false
      },
      {
        "seq": 20,
        "name": "ORAKKADU",
        "lat": null,
        "lng": null,
        "has_gps": false
      },
      {
        "seq": 21,
        "name": "BUDUR",
        "lat": 13.23878,
        "lng": 80.19479,
        "has_gps": true
      },
      {
        "seq": 22,
        "name": "ARUMANDAI RD.JN.",
        "lat": 13.22833,
        "lng": 80.21779,
        "has_gps": true
      },
      {
        "seq": 23,
        "name": "PUDUKUPPAM",
        "lat": 13.27504,
        "lng": 80.19857,
        "has_gps": true
      },
      {
        "seq": 24,
        "name": "GNAYARU",
        "lat": 13.26125,
        "lng": 80.21419,
        "has_gps": true
      }
    ],
    "stop_count": 24,
    "gps_coverage_pct": 66.7
  },
  "114P": {
    "route_id": "114P",
    "stops": [
      {
        "seq": 1,
        "name": "PADIYANALLUR",
        "lat": 13.20736,
        "lng": 80.1729,
        "has_gps": true
      },
      {
        "seq": 2,
        "name": "REDHILLS",
        "lat": 13.1914,
        "lng": 80.18552,
        "has_gps": true
      },
      {
        "seq": 3,
        "name": "AAYURVEDA ASHRAMAM",
        "lat": 13.18212,
        "lng": 80.1929,
        "has_gps": true
      },
      {
        "seq": 4,
        "name": "KAVANGARAI",
        "lat": 13.170355,
        "lng": 80.199438,
        "has_gps": true
      },
      {
        "seq": 5,
        "name": "CYCLE SHOP",
        "lat": 13.153057,
        "lng": 80.20869,
        "has_gps": true
      },
      {
        "seq": 6,
        "name": "BUS BAY-17TH KM",
        "lat": 13.14401,
        "lng": 80.22097,
        "has_gps": true
      },
      {
        "seq": 7,
        "name": "MALLIGAI NAGAR AVE",
        "lat": null,
        "lng": null,
        "has_gps": false
      },
      {
        "seq": 8,
        "name": "WATER PIPE THATHANKUPPAM",
        "lat": 13.12061,
        "lng": 80.19899,
        "has_gps": true
      },
      {
        "seq": 9,
        "name": "WEELS INDIA RD.JN.",
        "lat": null,
        "lng": null,
        "has_gps": false
      },
      {
        "seq": 10,
        "name": "THIRUMANGALAM",
        "lat": 13.087306,
        "lng": 80.197796,
        "has_gps": true
      },
      {
        "seq": 11,
        "name": "KOYAMBEDU SCHOOL",
        "lat": null,
        "lng": null,
        "has_gps": false
      },
      {
        "seq": 12,
        "name": "M.G.R.KOYAMBEDU",
        "lat": null,
        "lng": null,
        "has_gps": false
      }
    ],
    "stop_count": 12,
    "gps_coverage_pct": 66.7
  },
  "114S": {
    "route_id": "114S",
    "stops": [
      {
        "seq": 1,
        "name": "SEEMAVARAM",
        "lat": 13.26075,
        "lng": 80.25217,
        "has_gps": true
      },
      {
        "seq": 2,
        "name": "CHINNAMADIYOOR",
        "lat": null,
        "lng": null,
        "has_gps": false
      },
      {
        "seq": 3,
        "name": "THANDAVARAYAN PALAYAM",
        "lat": null,
        "lng": null,
        "has_gps": false
      },
      {
        "seq": 4,
        "name": "KANNIAMPALAYAM",
        "lat": 12.93639,
        "lng": 80.10046,
        "has_gps": true
      },
      {
        "seq": 5,
        "name": "PUDUKUPPAM",
        "lat": 13.27504,
        "lng": 80.19857,
        "has_gps": true
      },
      {
        "seq": 6,
        "name": "NERKUNDRAM",
        "lat": 13.07162,
        "lng": 80.18569,
        "has_gps": true
      },
      {
        "seq": 7,
        "name": "SOTHUPERMEDU",
        "lat": 13.25415,
        "lng": 80.17127,
        "has_gps": true
      },
      {
        "seq": 8,
        "name": "KARANODAI SCHOOL",
        "lat": 13.24713,
        "lng": 80.15737,
        "has_gps": true
      },
      {
        "seq": 9,
        "name": "SHOLAVARAM P.S.",
        "lat": 13.24103,
        "lng": 80.16028,
        "has_gps": true
      },
      {
        "seq": 10,
        "name": "SEMILIVARAM",
        "lat": 13.22457,
        "lng": 80.16638,
        "has_gps": true
      },
      {
        "seq": 11,
        "name": "PADIYANALLUR",
        "lat": 13.20736,
        "lng": 80.1729,
        "has_gps": true
      },
      {
        "seq": 12,
        "name": "REDHILLS",
        "lat": 13.1914,
        "lng": 80.18552,
        "has_gps": true
      },
      {
        "seq": 13,
        "name": "AAYURVEDA ASHRAMAM",
        "lat": 13.18212,
        "lng": 80.1929,
        "has_gps": true
      },
      {
        "seq": 14,
        "name": "KAVANGARAI",
        "lat": 13.170355,
        "lng": 80.199438,
        "has_gps": true
      },
      {
        "seq": 15,
        "name": "CYCLE SHOP",
        "lat": 13.153057,
        "lng": 80.20869,
        "has_gps": true
      },
      {
        "seq": 16,
        "name": "BUS BAY-17TH KM",
        "lat": 13.14401,
        "lng": 80.22097,
        "has_gps": true
      },
      {
        "seq": 17,
        "name": "MALLIGAI NAGAR AVE",
        "lat": null,
        "lng": null,
        "has_gps": false
      },
      {
        "seq": 18,
        "name": "WATER PIPE THATHANKUPPAM",
        "lat": 13.12061,
        "lng": 80.19899,
        "has_gps": true
      },
      {
        "seq": 19,
        "name": "WEELS INDIA RD.JN.",
        "lat": null,
        "lng": null,
        "has_gps": false
      },
      {
        "seq": 20,
        "name": "THIRUMANGALAM",
        "lat": 13.087306,
        "lng": 80.197796,
        "has_gps": true
      },
      {
        "seq": 21,
        "name": "KOYAMBEDU SCHOOL",
        "lat": null,
        "lng": null,
        "has_gps": false
      },
      {
        "seq": 22,
        "name": "KOYAMBEDU P.S",
        "lat": null,
        "lng": null,
        "has_gps": false
      },
      {
        "seq": 23,
        "name": "KOYAMBEDU MARKET",
        "lat": null,
        "lng": null,
        "has_gps": false
      }
    ],
    "stop_count": 23,
    "gps_coverage_pct": 69.6
  },
  "118": {
    "route_id": "118",
    "stops": [
      {
        "seq": 1,
        "name": "TAMBARAM",
        "lat": 12.92518,
        "lng": 80.11552,
        "has_gps": true
      },
      {
        "seq": 2,
        "name": "IRUMBULIYUR",
        "lat": 12.916638,
        "lng": 80.106802,
        "has_gps": true
      },
      {
        "seq": 3,
        "name": "PERUNGALATHUR",
        "lat": 12.905657,
        "lng": 80.096009,
        "has_gps": true
      },
      {
        "seq": 4,
        "name": "VANDALUR GATE",
        "lat": 12.89351,
        "lng": 80.08641,
        "has_gps": true
      },
      {
        "seq": 5,
        "name": "VANDALUR ZOO",
        "lat": 12.880288,
        "lng": 80.080472,
        "has_gps": true
      },
      {
        "seq": 6,
        "name": "URAPAKKAM",
        "lat": 12.951706,
        "lng": 80.241742,
        "has_gps": true
      },
      {
        "seq": 7,
        "name": "PALAKKA COMPANY",
        "lat": null,
        "lng": null,
        "has_gps": false
      },
      {
        "seq": 8,
        "name": "GUDUVANCHERY",
        "lat": 12.84548,
        "lng": 80.061448,
        "has_gps": true
      },
      {
        "seq": 9,
        "name": "THAILAPURAM",
        "lat": 12.830435,
        "lng": 80.045687,
        "has_gps": true
      },
      {
        "seq": 10,
        "name": "MARAIMALAI NAGAR",
        "lat": 12.799597,
        "lng": 80.023356,
        "has_gps": true
      },
      {
        "seq": 11,
        "name": "PAVENTHER SALAI",
        "lat": null,
        "lng": null,
        "has_gps": false
      },
      {
        "seq": 12,
        "name": "MARAIMALAI NAGAR I.E.",
        "lat": 12.799597,
        "lng": 80.023356,
        "has_gps": true
      }
    ],
    "stop_count": 12,
    "gps_coverage_pct": 83.3
  },
  "118ET": {
    "route_id": "118ET",
    "stops": [
      {
        "seq": 1,
        "name": "TAMBARAM",
        "lat": 12.92518,
        "lng": 80.11552,
        "has_gps": true
      },
      {
        "seq": 2,
        "name": "IRUMBULIYUR",
        "lat": 12.916638,
        "lng": 80.106802,
        "has_gps": true
      },
      {
        "seq": 3,
        "name": "PERUNGALATHUR",
        "lat": 12.905657,
        "lng": 80.096009,
        "has_gps": true
      },
      {
        "seq": 4,
        "name": "VANDALUR GATE",
        "lat": 12.89351,
        "lng": 80.08641,
        "has_gps": true
      },
      {
        "seq": 5,
        "name": "VANDALUR ZOO",
        "lat": 12.880288,
        "lng": 80.080472,
        "has_gps": true
      },
      {
        "seq": 6,
        "name": "URAPAKKAM",
        "lat": 12.951706,
        "lng": 80.241742,
        "has_gps": true
      },
      {
        "seq": 7,
        "name": "PALAKKA COMPANY",
        "lat": null,
        "lng": null,
        "has_gps": false
      },
      {
        "seq": 8,
        "name": "GUDUVANCHERY",
        "lat": 12.84548,
        "lng": 80.061448,
        "has_gps": true
      },
      {
        "seq": 9,
        "name": "THAILAPURAM",
        "lat": 12.830435,
        "lng": 80.045687,
        "has_gps": true
      },
      {
        "seq": 10,
        "name": "MARAIMALAI NAGAR",
        "lat": 12.799597,
        "lng": 80.023356,
        "has_gps": true
      },
      {
        "seq": 11,
        "name": "PAVENTHER SALAI",
        "lat": null,
        "lng": null,
        "has_gps": false
      },
      {
        "seq": 12,
        "name": "MARAIMALAI NAGAR P.S.JN.",
        "lat": 12.799597,
        "lng": 80.023356,
        "has_gps": true
      },
      {
        "seq": 13,
        "name": "GUDALOOR TEA SHOP",
        "lat": null,
        "lng": null,
        "has_gps": false
      },
      {
        "seq": 14,
        "name": "KARUNEELAM ROAD JN",
        "lat": null,
        "lng": null,
        "has_gps": false
      },
      {
        "seq": 15,
        "name": "KADAMBUR",
        "lat": null,
        "lng": null,
        "has_gps": false
      },
      {
        "seq": 16,
        "name": "KALIVANTHAPATTU",
        "lat": null,
        "lng": null,
        "has_gps": false
      }
    ],
    "stop_count": 16,
    "gps_coverage_pct": 62.5
  },
  "118T": {
    "route_id": "118T",
    "stops": [
      {
        "seq": 1,
        "name": "TAMBARAM",
        "lat": 12.92518,
        "lng": 80.11552,
        "has_gps": true
      },
      {
        "seq": 2,
        "name": "IRUMBULIYUR",
        "lat": 12.916638,
        "lng": 80.106802,
        "has_gps": true
      },
      {
        "seq": 3,
        "name": "PERUNGALATHUR",
        "lat": 12.905657,
        "lng": 80.096009,
        "has_gps": true
      },
      {
        "seq": 4,
        "name": "VANDALUR GATE",
        "lat": 12.89351,
        "lng": 80.08641,
        "has_gps": true
      },
      {
        "seq": 5,
        "name": "VANDALUR ZOO",
        "lat": 12.880288,
        "lng": 80.080472,
        "has_gps": true
      },
      {
        "seq": 6,
        "name": "URAPAKKAM",
        "lat": 12.951706,
        "lng": 80.241742,
        "has_gps": true
      },
      {
        "seq": 7,
        "name": "PALAKKA COMPANY",
        "lat": null,
        "lng": null,
        "has_gps": false
      },
      {
        "seq": 8,
        "name": "GUDUVANCHERY",
        "lat": 12.84548,
        "lng": 80.061448,
        "has_gps": true
      },
      {
        "seq": 9,
        "name": "GOVINDARAJAPURAM",
        "lat": 13.04704,
        "lng": 80.07943,
        "has_gps": true
      },
      {
        "seq": 10,
        "name": "PERUMATTU NALLUR",
        "lat": null,
        "lng": null,
        "has_gps": false
      },
      {
        "seq": 11,
        "name": "DHARGAS NAGAR",
        "lat": 13.120373,
        "lng": 80.254826,
        "has_gps": true
      }
    ],
    "stop_count": 11,
    "gps_coverage_pct": 81.8
  },
  "119": {
    "route_id": "119",
    "stops": [
      {
        "seq": 1,
        "name": "GUINDY TVK ESTATE",
        "lat": 13.009764,
        "lng": 80.211128,
        "has_gps": true
      },
      {
        "seq": 2,
        "name": "CONCORDE",
        "lat": 13.010411,
        "lng": 80.222847,
        "has_gps": true
      },
      {
        "seq": 3,
        "name": "JN.OF RACE COURSE RD",
        "lat": 13.00661,
        "lng": 80.22054,
        "has_gps": true
      },
      {
        "seq": 4,
        "name": "GURUNANAK COLLEGE",
        "lat": 12.991105,
        "lng": 80.219511,
        "has_gps": true
      },
      {
        "seq": 5,
        "name": "VELACHERY",
        "lat": 12.975957,
        "lng": 80.220146,
        "has_gps": true
      },
      {
        "seq": 6,
        "name": "I.R.T. RD.JN.",
        "lat": 12.98156,
        "lng": 80.23976,
        "has_gps": true
      },
      {
        "seq": 7,
        "name": "SRP TOOLS",
        "lat": 12.97873,
        "lng": 80.252629,
        "has_gps": true
      },
      {
        "seq": 8,
        "name": "KANDANCHAVADI",
        "lat": 12.966938,
        "lng": 80.247971,
        "has_gps": true
      },
      {
        "seq": 9,
        "name": "THORAPPAKKAM TEA SHOP",
        "lat": 12.952012,
        "lng": 80.242241,
        "has_gps": true
      },
      {
        "seq": 10,
        "name": "MOOTAKARAN CHAVADI",
        "lat": 12.929949,
        "lng": 80.231094,
        "has_gps": true
      },
      {
        "seq": 11,
        "name": "KARAPAKKAM",
        "lat": 12.913535,
        "lng": 80.229182,
        "has_gps": true
      },
      {
        "seq": 12,
        "name": "SHOZHANGANALLUR P.U.OFFICE",
        "lat": 12.90117,
        "lng": 80.22569,
        "has_gps": true
      },